{
  "elements": [{
    "Type": "Node",
    "Name": "Abbott Park",
    "Street": "49 E. 95th St.",
    "City": "Chicago",
    "county": "Cook County",
    "state": "Illinois",
    "state_code": "IL",
    "postcode": "",
    "lat": 41.87897,
    "lon": -87.66063
  },
{
  "Type": "Node",
  "Name": "Ada Park",
  "Street": "11250 S. Ada St",
  "City": "Chicago",
  "county": "Cook County",
  "state": "Illinois",
  "state_code": "IL",
  "postcode": "",
  "lat": 41.68859025,
  "lon": -87.6541711166965
},
{
"Type": "Node",
"Name": "Adams (George & Adele) Park",
"Street": "1919 N. Seminary Ave.",
"City": "Chicago",
"county": "Cook County",
"state": "Illinois",
"state_code": "IL",
"postcode": 60614,
"lat": 41.9166319,
"lon": -87.6553887
},
{
"Type": "Node",
"Name": "Adams (John) Park",
"Street": "7535 S. Dobson Ave.",
"City": "Chicago",
"county": "Cook County",
"state": "Illinois",
"state_code": "IL",
"postcode": "",
"lat": 41.757589,
"lon": -87.599281
},
{
"Type": "Node",
"Name": "Addams (Jane) Memorial Park",
"Street": "550 E. Grand Ave.",
"City": "Chicago",
"county": "Cook County",
"state": "Illinois",
"state_code": "IL",
"postcode": 60611,
"lat": 41.8931098,
"lon": -87.6131642
},
{
"Type": "Node",
"Name": "Addams (Jane) Park",
"Street": "1434 S. Loomis Ave.",
"City": "Chicago",
"county": "Cook County",
"state": "Illinois",
"state_code": "IL",
"postcode": 60608,
"lat": 41.862092,
"lon": -87.662794
},
{
"Type": "Node",
"Name": "Aiello Park",
"Street": "2133 N. McVicker Ave",
"City": "Chicago",
"county": "Cook County",
"state": "Illinois",
"state_code": "IL",
"postcode": 60639,
"lat": 41.9190615,
"lon": -87.7764258601555
},
{
"Type": "Node",
"Name": "Algonquin Park",
"Street": "2941 N. Washtenaw Ave.",
"City": "Chicago",
"county": "Cook County",
"state": "Illinois",
"state_code": "IL",
"postcode": "",
"lat": 41.8817102,
"lon": -87.6939296
},
{
"Type": "Node",
"Name": "Almond Park",
"Street": "2234 W. 115th St.",
"City": "Chicago",
"county": "Cook County",
"state": "Illinois",
"state_code": "IL",
"postcode": "",
"lat": 41.6844653,
"lon": -87.6765119937639
},
{
"Type": "Node",
"Name": "Altgeld Park",
"Street": "515 S. Washtenaw Ave",
"City": "Chicago",
"county": "Cook County",
"state": "Illinois",
"state_code": "IL",
"postcode": 60612,
"lat": 41.87435275,
"lon": -87.6932961274933
},
{
"Type": "Node",
"Name": "Amundsen Park",
"Street": "6200 W. Bloomingdale Ave.",
"City": "Chicago",
"county": "Cook County",
"state": "Illinois",
"state_code": "IL",
"postcode": 60622,
"lat": 41.9142116,
"lon": -87.6757383
},
{
"Type": "Node",
"Name": "Anderson (Fred) Park",
"Street": "1611 S. Wabash Ave.",
"City": "Chicago",
"county": "Cook County",
"state": "Illinois",
"state_code": "IL",
"postcode": 60605,
"lat": 41.8594879,
"lon": -87.6250451480606
},
{
"Type": "Node",
"Name": "Anderson (Louis) Park",
"Street": "3748 South Prairie Avenue",
"City": "Chicago",
"county": "Cook County",
"state": "Illinois",
"state_code": "IL",
"postcode": 60653,
"lat": 41.826057,
"lon": -87.620437
},
{
"Type": "Node",
"Name": "Andersonville Park",
"Street": "5233 N. Ashland Ave.",
"City": "Chicago",
"county": "Cook County",
"state": "Illinois",
"state_code": "IL",
"postcode": 60640,
"lat": 41.9771393,
"lon": -87.6692716
},
{
"Type": "Node",
"Name": "Arcade Park",
"Street": "11132 S. St. Lawrence Ave.",
"City": "Chicago",
"county": "Cook County",
"state": "Illinois",
"state_code": "IL",
"postcode": 60628,
"lat": 41.69138995,
"lon": -87.6087895618355
},
{
"Type": "Node",
"Name": "Archer Park",
"Street": "4901 S. Kilbourn Ave",
"City": "Chicago",
"county": "Cook County",
"state": "Illinois",
"state_code": "IL",
"postcode": 60632,
"lat": 41.8034779,
"lon": -87.7351325326835
},
{
"Type": "Node",
"Name": "Armour Square Park",
"Street": "3309 S. Shields Ave.",
"City": "Chicago",
"county": "Cook County",
"state": "Illinois",
"state_code": "IL",
"postcode": 60616,
"lat": 41.8342633,
"lon": -87.6350408703439
},
{
"Type": "Node",
"Name": "Armstrong Park",
"Street": "4433 S. St. Lawrence Ave.",
"City": "Chicago",
"county": "Cook County",
"state": "Illinois",
"state_code": "IL",
"postcode": 60653,
"lat": 41.81403455,
"lon": -87.6103232291696
},
{
"Type": "Node",
"Name": "Arrigo Park",
"Street": "801 S. Loomis St.",
"City": "Chicago",
"county": "Cook County",
"state": "Illinois",
"state_code": "IL",
"postcode": 60607,
"lat": 41.8716745,
"lon": -87.659846123772
},
{
"Type": "Node",
"Name": "Ashe Beach Park",
"Street": "2701 E. 74th St.",
"City": "Chicago",
"county": "Cook County",
"state": "Illinois",
"state_code": "IL",
"postcode": 60649,
"lat": 41.76235015,
"lon": -87.557984113976
},
{
"Type": "Node",
"Name": "Ashmore Park",
"Street": "4807 W. Gunnison St.",
"City": "Chicago",
"county": "Cook County",
"state": "Illinois",
"state_code": "IL",
"postcode": 60630,
"lat": 41.96867455,
"lon": -87.748113956386
},
{
"Type": "Node",
"Name": "Aspen Park",
"Street": "4237 S. Wabash Ave.",
"City": "Chicago",
"county": "Cook County",
"state": "Illinois",
"state_code": "IL",
"postcode": 60653,
"lat": 41.81714325,
"lon": -87.6241877
},
{
"Type": "Node",
"Name": "Aster Park",
"Street": "4639 N. Kenmore Ave",
"City": "Chicago",
"county": "Cook County",
"state": "Illinois",
"state_code": "IL",
"postcode": 60640,
"lat": 41.96661615,
"lon": -87.6558151250883
},
{
"Type": "Node",
"Name": "Athletic Field Park",
"Street": "3546 W. Addison St",
"City": "Chicago",
"county": "Cook County",
"state": "Illinois",
"state_code": "IL",
"postcode": 60618,
"lat": 41.9477783,
"lon": -87.7170436586305
},
{
"Type": "Node",
"Name": "Auburn Park",
"Street": "406 W. Winneconna Pkwy.",
"City": "Chicago",
"county": "Cook County",
"state": "Illinois",
"state_code": "IL",
"postcode": 60620,
"lat": 41.753185,
"lon": -87.634984
},
{
"Type": "Node",
"Name": "Augusta Park",
"Street": "4433 W. Augusta Blvd.",
"City": "Chicago",
"county": "Cook County",
"state": "Illinois",
"state_code": "IL",
"postcode": 60651,
"lat": 41.8985495,
"lon": -87.7373421251537
},
{
"Type": "Node",
"Name": "Austin Foster Park",
"Street": "6020 W. Foster Ave.",
"City": "Chicago",
"county": "Cook County",
"state": "Illinois",
"state_code": "IL",
"postcode": "",
"lat": 41.97658385,
"lon": -87.7788868680191
},
{
"Type": "Node",
"Name": "Austin Park",
"Street": "5951 W. Lake St.",
"City": "Chicago",
"county": "Cook County",
"state": "Illinois",
"state_code": "IL",
"postcode": 60644,
"lat": 41.88771925,
"lon": -87.7712870977092
},
{
"Type": "Node",
"Name": "Austin Town Hall Park",
"Street": "5610 W. Lake St.",
"City": "Chicago",
"county": "Cook County",
"state": "Illinois",
"state_code": "IL",
"postcode": 60644,
"lat": 41.88852925,
"lon": -87.7657957624253
},
{
"Type": "Node",
"Name": "Avalon Park",
"Street": "1215 E. 83rd St.",
"City": "Chicago",
"county": "Cook County",
"state": "Illinois",
"state_code": "IL",
"postcode": 60619,
"lat": 41.74362195,
"lon": -87.5942743165517
},
{
"Type": "Node",
"Name": "Avondale Park",
"Street": "3516 W. School St.",
"City": "Chicago",
"county": "Cook County",
"state": "Illinois",
"state_code": "IL",
"postcode": 60618,
"lat": 41.94150875,
"lon": -87.7152801737951
},
{
"Type": "Node",
"Name": "Back of the Yards",
"Street": "4922 S. Throop St.",
"City": "Chicago",
"county": "Cook County",
"state": "Illinois",
"state_code": "IL",
"postcode": "",
"lat": 41.8044641,
"lon": -87.6582381483412
},
{
"Type": "Node",
"Name": "Baraga Park",
"Street": "2434 S. Leavitt St.",
"City": "Chicago",
"county": "Cook County",
"state": "Illinois",
"state_code": "IL",
"postcode": 60608,
"lat": 41.84732375,
"lon": -87.6808988842807
},
{
"Type": "Node",
"Name": "Barberry Park",
"Street": "2825 W. Arthington St.",
"City": "Chicago",
"county": "Cook County",
"state": "Illinois",
"state_code": "IL",
"postcode": 60612,
"lat": 41.869885,
"lon": -87.697076
},
{
"Type": "Node",
"Name": "Barnard Park",
"Street": "10431 S. Longwood Dr.",
"City": "Chicago",
"county": "Cook County",
"state": "Illinois",
"state_code": "IL",
"postcode": "",
"lat": 41.7033652,
"lon": -87.6701664350414
},
{
"Type": "Node",
"Name": "Barrett Park",
"Street": "2022 W. Cermak Rd.",
"City": "Chicago",
"county": "Cook County",
"state": "Illinois",
"state_code": "IL",
"postcode": 60608,
"lat": 41.8524284,
"lon": -87.6763137582967
},
{
"Type": "Node",
"Name": "Bartelme Park",
"Street": "115 S. Sangamon St.",
"City": "Chicago",
"county": "Cook County",
"state": "Illinois",
"state_code": "IL",
"postcode": 60607,
"lat": 41.8798053,
"lon": -87.6502199824691
},
{
"Type": "Node",
"Name": "Battle of Fort Dearborn Park",
"Street": "1801 S. Calumet Ave.",
"City": "Chicago",
"county": "Cook County",
"state": "Illinois",
"state_code": "IL",
"postcode": 60616,
"lat": 41.85773865,
"lon": -87.6191831779448
},
{
"Type": "Node",
"Name": "Bauler Park",
"Street": "501 W. Wisconsin St.",
"City": "Chicago",
"county": "Cook County",
"state": "Illinois",
"state_code": "IL",
"postcode": 60614,
"lat": 41.916475,
"lon": -87.641191
},
{
"Type": "Node",
"Name": "Beehive Park",
"Street": "6156 S. Dearborn Ave",
"City": "Chicago",
"county": "Cook County",
"state": "Illinois",
"state_code": "IL",
"postcode": 60636,
"lat": 41.781355,
"lon": -87.674242
},
{
"Type": "Node",
"Name": "Beilfuss Park",
"Street": "1725 N. Springfield Ave",
"City": "Chicago",
"county": "Cook County",
"state": "Illinois",
"state_code": "IL",
"postcode": 60647,
"lat": 41.9124399,
"lon": -87.7233165778603
},
{
"Type": "Node",
"Name": "Bell Park",
"Street": "3020 N. Oak Park Ave.",
"City": "Chicago",
"county": "Cook County",
"state": "Illinois",
"state_code": "IL",
"postcode": 60634,
"lat": 41.9354288,
"lon": -87.7962247029337
},
{
"Type": "Node",
"Name": "Beniac Greenway Park",
"Street": "3925 E. 104th St.",
"City": "Chicago",
"county": "Cook County",
"state": "Illinois",
"state_code": "IL",
"postcode": "",
"lat": 41.695292,
"lon": -87.529489
},
{
"Type": "Node",
"Name": "Berger Park",
"Street": "6205 N. Sheridan Rd.",
"City": "Chicago",
"county": "Cook County",
"state": "Illinois",
"state_code": "IL",
"postcode": 60660,
"lat": 41.9952665,
"lon": -87.6549219298458
},
{
"Type": "Node",
"Name": "Bessemer Park",
"Street": "8930 S. Muskegon Ave",
"City": "Chicago",
"county": "Cook County",
"state": "Illinois",
"state_code": "IL",
"postcode": 60617,
"lat": 41.73133385,
"lon": -87.5564259825329
},
{
"Type": "Node",
"Name": "Beverly Park",
"Street": "2460 W. 102nd St.",
"City": "Chicago",
"county": "Cook County",
"state": "Illinois",
"state_code": "IL",
"postcode": 60643,
"lat": 41.7081951,
"lon": -87.6836683242126
},
{
"Type": "Node",
"Name": "Bickerdike Square Park",
"Street": "1461 W. Ohio St.",
"City": "Chicago",
"county": "Cook County",
"state": "Illinois",
"state_code": "IL",
"postcode": 60642,
"lat": 41.891916,
"lon": -87.66462
},
{
"Type": "Node",
"Name": "Big Marsh Park",
"Street": "11555 S. Stony Island Ave.",
"City": "Chicago",
"county": "Cook County",
"state": "Illinois",
"state_code": "IL",
"postcode": 60617,
"lat": 41.6858722,
"lon": -87.5738385
},
{
"Type": "Node",
"Name": "Birch Park",
"Street": "425 E. 45th St.",
"City": "Chicago",
"county": "Cook County",
"state": "Illinois",
"state_code": "IL",
"postcode": 60653,
"lat": 41.813317,
"lon": -87.625846
},
{
"Type": "Node",
"Name": "Bixler Park",
"Street": "5641 S. Kenwood Ave.",
"City": "Chicago",
"county": "Cook County",
"state": "Illinois",
"state_code": "IL",
"postcode": 60637,
"lat": 41.7924282,
"lon": -87.5936162056885
},
{
"Type": "Node",
"Name": "Blackhawk Park",
"Street": "2318 N. Lavergne Ave.",
"City": "Chicago",
"county": "Cook County",
"state": "Illinois",
"state_code": "IL",
"postcode": 60639,
"lat": 41.92287925,
"lon": -87.7518726348979
},
{
"Type": "Node",
"Name": "Blackwelder Park",
"Street": "11500 S. Homewood Ave.",
"City": "Chicago",
"county": "Cook County",
"state": "Illinois",
"state_code": "IL",
"postcode": "",
"lat": 41.68327675,
"lon": -87.6710307804868
},
{
"Type": "Node",
"Name": "Block Park",
"Street": "346 W. 104th St.",
"City": "Chicago",
"county": "Cook County",
"state": "Illinois",
"state_code": "IL",
"postcode": "",
"lat": 41.7061694,
"lon": -87.6324515489697
},
{
"Type": "Node",
"Name": "Bloomingdale Trail Park (Park No. 572)",
"Street": "1600-3750 W. Bloomingdale Ave.",
"City": "Chicago",
"county": "Cook County",
"state": "Illinois",
"state_code": "IL",
"postcode": 60647,
"lat": 41.9139507,
"lon": -87.6986392
},
{
"Type": "Node",
"Name": "Bogan Park",
"Street": "3939 W. 79th St.",
"City": "Chicago",
"county": "Cook County",
"state": "Illinois",
"state_code": "IL",
"postcode": "",
"lat": 41.7468087,
"lon": -87.7205601869429
},
{
"Type": "Node",
"Name": "Bohn Park",
"Street": "1966 W. 111th St.",
"City": "Chicago",
"county": "Cook County",
"state": "Illinois",
"state_code": "IL",
"postcode": "",
"lat": 41.69264305,
"lon": -87.6711042317685
},
{
"Type": "Node",
"Name": "Boler Park",
"Street": "3601 W. Arthington St.",
"City": "Chicago",
"county": "Cook County",
"state": "Illinois",
"state_code": "IL",
"postcode": "",
"lat": 41.8699281,
"lon": -87.7172716851227
},
{
"Type": "Node",
"Name": "Bosley Park",
"Street": "3044 S. Bonfield St.",
"City": "Chicago",
"county": "Cook County",
"state": "Illinois",
"state_code": "IL",
"postcode": 60608,
"lat": 41.8390685,
"lon": -87.6537786312595
},
{
"Type": "Node",
"Name": "Boswell Park",
"Street": "6644 S. University Ave.",
"City": "Chicago",
"county": "Cook County",
"state": "Illinois",
"state_code": "IL",
"postcode": 60637,
"lat": 41.7737116,
"lon": -87.5988327255068
},
{
"Type": "Node",
"Name": "Bradley Park",
"Street": "9729 S.Yates Ave.",
"City": "Chicago",
"county": "Cook County",
"state": "Illinois",
"state_code": "IL",
"postcode": 60617,
"lat": 41.7178533,
"lon": -87.5645923
},
{
"Type": "Node",
"Name": "Brainerd Park",
"Street": "1246 W. 92nd St.",
"City": "Chicago",
"county": "Cook County",
"state": "Illinois",
"state_code": "IL",
"postcode": 60620,
"lat": 41.72772775,
"lon": -87.6543177389433
},
{
"Type": "Node",
"Name": "Brands Park",
"Street": "3285 N. Elston Ave.",
"City": "Chicago",
"county": "Cook County",
"state": "Illinois",
"state_code": "IL",
"postcode": 60618,
"lat": 41.9410418,
"lon": -87.6995466883915
},
{
"Type": "Node",
"Name": "Brighton Park",
"Street": "3501 S. Richmond St.",
"City": "Chicago",
"county": "Cook County",
"state": "Illinois",
"state_code": "IL",
"postcode": 60632,
"lat": 41.829945,
"lon": -87.698413
},
{
"Type": "Node",
"Name": "Broadway Armory Park",
"Street": "5917 N. Broadway",
"City": "Chicago",
"county": "Cook County",
"state": "Illinois",
"state_code": "IL",
"postcode": 60660,
"lat": 41.98905505,
"lon": -87.6596272740023
},
{
"Type": "Node",
"Name": "Bromann Park",
"Street": "5400 N. Broadway",
"City": "Chicago",
"county": "Cook County",
"state": "Illinois",
"state_code": "IL",
"postcode": 60640,
"lat": 41.98016575,
"lon": -87.6603848992743
},
{
"Type": "Node",
"Name": "Broncho Billy Playlot Park",
"Street": "4437 N. Magnolia Ave.",
"City": "Chicago",
"county": "Cook County",
"state": "Illinois",
"state_code": "IL",
"postcode": 60640,
"lat": 41.96282405,
"lon": -87.6605963596768
},
{
"Type": "Node",
"Name": "Brooks (Gwendolyn) Park",
"Street": "4542 S. Greenwood Ave.",
"City": "Chicago",
"county": "Cook County",
"state": "Illinois",
"state_code": "IL",
"postcode": 60653,
"lat": 41.8119686,
"lon": -87.5993147
},
{
"Type": "Node",
"Name": "Brooks (Oscar) Park",
"Street": "7100 N. Harlem Ave.",
"City": "Chicago",
"county": "Cook County",
"state": "Illinois",
"state_code": "IL",
"postcode": 60631,
"lat": 42.009876,
"lon": -87.807278
},
{
"Type": "Node",
"Name": "Brown Memorial Park",
"Street": "634 E. 86th St.",
"City": "Chicago",
"county": "Cook County",
"state": "Illinois",
"state_code": "IL",
"postcode": 60619,
"lat": 41.73880165,
"lon": -87.6083429725737
},
{
"Type": "Node",
"Name": "Brynford Park",
"Street": "5636 N. Pulaski Rd.",
"City": "Chicago",
"county": "Cook County",
"state": "Illinois",
"state_code": "IL",
"postcode": 60624,
"lat": 41.881256,
"lon": -87.725339
},
{
"Type": "Node",
"Name": "Buena Circle Park",
"Street": "1049 W. Buena Ave",
"City": "Chicago",
"county": "Cook County",
"state": "Illinois",
"state_code": "IL",
"postcode": 60613,
"lat": 41.9583981,
"lon": -87.6564748801738
},
{
"Type": "Node",
"Name": "Buffalo Park",
"Street": "4501 N. California Ave.",
"City": "Chicago",
"county": "Cook County",
"state": "Illinois",
"state_code": "IL",
"postcode": "",
"lat": 41.9633195,
"lon": -87.6983510356568
},
{
"Type": "Node",
"Name": "Burnham Park",
"Street": "1200-5700 S. Lake Shore Drive",
"City": "Chicago",
"county": "Cook County",
"state": "Illinois",
"state_code": "IL",
"postcode": "",
"lat": 41.8298706,
"lon": -87.6035502131361
},
{
"Type": "Node",
"Name": "Burnside Park",
"Street": "9400 S. Greenwood Ave.",
"City": "Chicago",
"county": "Cook County",
"state": "Illinois",
"state_code": "IL",
"postcode": 60615,
"lat": 41.7993342,
"lon": -87.5997393
},
{
"Type": "Node",
"Name": "Buttercup Park",
"Street": "4901 N. Sheridan Rd.",
"City": "Chicago",
"county": "Cook County",
"state": "Illinois",
"state_code": "IL",
"postcode": 60640,
"lat": 41.97203935,
"lon": -87.6544569347766
},
{
"Type": "Node",
"Name": "Butternut Park",
"Street": "5324 S. Woodlawn Ave.",
"City": "Chicago",
"county": "Cook County",
"state": "Illinois",
"state_code": "IL",
"postcode": 60615,
"lat": 41.79865985,
"lon": -87.597053475133
},
{
"Type": "Node",
"Name": "Byrnes Park",
"Street": "2200 E. 103rd St.",
"City": "Chicago",
"county": "Cook County",
"state": "Illinois",
"state_code": "IL",
"postcode": 60617,
"lat": 41.716237,
"lon": -87.578156
},
{
"Type": "Node",
"Name": "California Park",
"Street": "3843 N. California Ave.",
"City": "Chicago",
"county": "Cook County",
"state": "Illinois",
"state_code": "IL",
"postcode": 60625,
"lat": 41.8844324,
"lon": -87.6962925
},
{
"Type": "Node",
"Name": "Calumet Park",
"Street": "9801 S. Ave G",
"City": "Chicago",
"county": "Cook County",
"state": "Illinois",
"state_code": "IL",
"postcode": 60617,
"lat": 41.71549755,
"lon": -87.530123667835
},
{
"Type": "Node",
"Name": "Canal Origins Park",
"Street": "2701 S. Ashland Ave",
"City": "Chicago",
"county": "Cook County",
"state": "Illinois",
"state_code": "IL",
"postcode": 60608,
"lat": 41.84296695,
"lon": -87.6653603468482
},
{
"Type": "Node",
"Name": "Canalport Riverwalk Park",
"Street": "2900 S. Ashland Ave",
"City": "Chicago",
"county": "Cook County",
"state": "Illinois",
"state_code": "IL",
"postcode": 60608,
"lat": 41.84267385,
"lon": -87.6712298857161
},
{
"Type": "Node",
"Name": "Carmen Park",
"Street": "1224 W. Carmen Ave",
"City": "Chicago",
"county": "Cook County",
"state": "Illinois",
"state_code": "IL",
"postcode": 60640,
"lat": 41.9749118,
"lon": -87.6609446748464
},
{
"Type": "Node",
"Name": "Carpenter Park",
"Street": "6153 S. Carpenter St.",
"City": "Chicago",
"county": "Cook County",
"state": "Illinois",
"state_code": "IL",
"postcode": 60621,
"lat": 41.78168525,
"lon": -87.6505759741663
},
{
"Type": "Node",
"Name": "Carver Park",
"Street": "939 E. 132nd St.",
"City": "Chicago",
"county": "Cook County",
"state": "Illinois",
"state_code": "IL",
"postcode": 60827,
"lat": 41.65283725,
"lon": -87.5983142484179
},
{
"Type": "Node",
"Name": "Cedar Park",
"Street": "5311 N. Winthrop Ave.",
"City": "Chicago",
"county": "Cook County",
"state": "Illinois",
"state_code": "IL",
"postcode": 60640,
"lat": 41.966146,
"lon": -87.656819
},
{
"Type": "Node",
"Name": "Centennial Park",
"Street": "6068 N. Northwest Highway",
"City": "Chicago",
"county": "Cook County",
"state": "Illinois",
"state_code": "IL",
"postcode": 60631,
"lat": 41.99179145,
"lon": -87.798558736212
},
{
"Type": "Node",
"Name": "Central Park",
"Street": "721 N. Central Park Ave.",
"City": "Chicago",
"county": "Cook County",
"state": "Illinois",
"state_code": "IL",
"postcode": 60624,
"lat": 41.8855878,
"lon": -87.7306118
},
{
"Type": "Node",
"Name": "Challenger Park",
"Street": "1100 W. Irving Park Rd.",
"City": "Chicago",
"county": "Cook County",
"state": "Illinois",
"state_code": "IL",
"postcode": "",
"lat": 41.9599171,
"lon": -87.657133018862
},
{
"Type": "Node",
"Name": "Chamberlain Triangle Park",
"Street": "4227 S. Greenwood Ave.",
"City": "Chicago",
"county": "Cook County",
"state": "Illinois",
"state_code": "IL",
"postcode": 60653,
"lat": 41.8171438,
"lon": -87.5992471062544
},
{
"Type": "Node",
"Name": "Chase Park",
"Street": "4701 N. Ashland Ave.",
"City": "Chicago",
"county": "Cook County",
"state": "Illinois",
"state_code": "IL",
"postcode": 60640,
"lat": 41.96751205,
"lon": -87.6682780216787
},
{
"Type": "Node",
"Name": "Chestnut Park",
"Street": "7001 S. Dante Ave.",
"City": "Chicago",
"county": "Cook County",
"state": "Illinois",
"state_code": "IL",
"postcode": "",
"lat": 41.778282,
"lon": -87.589653
},
{
"Type": "Node",
"Name": "Chicago Women's Park and Gardens",
"Street": "1801 S. Indiana Ave.",
"City": "Chicago",
"county": "Cook County",
"state": "Illinois",
"state_code": "IL",
"postcode": 60616,
"lat": 41.85729825,
"lon": -87.6215151427902
},
{
"Type": "Node",
"Name": "Chippewa Park",
"Street": "6748 N. Sacramento Ave",
"City": "Chicago",
"county": "Cook County",
"state": "Illinois",
"state_code": "IL",
"postcode": "",
"lat": 41.901064,
"lon": -87.701786
},
{
"Type": "Node",
"Name": "Chopin Park",
"Street": "3420 N. Long Ave",
"City": "Chicago",
"county": "Cook County",
"state": "Illinois",
"state_code": "IL",
"postcode": 60641,
"lat": 41.94319145,
"lon": -87.7624057610192
},
{
"Type": "Node",
"Name": "Christiana Park",
"Street": "1533 S. Christiana Ave.",
"City": "Chicago",
"county": "Cook County",
"state": "Illinois",
"state_code": "IL",
"postcode": 60623,
"lat": 41.8598241,
"lon": -87.7088121160109
},
{
"Type": "Node",
"Name": "Churchill Field Playlot Park",
"Street": "1825 N. Damen Ave.",
"City": "Chicago",
"county": "Cook County",
"state": "Illinois",
"state_code": "IL",
"postcode": "",
"lat": 41.9072909,
"lon": -87.6773701
},
{
"Type": "Node",
"Name": "Claremont Park",
"Street": "2334 W. Flournoy St.",
"City": "Chicago",
"county": "Cook County",
"state": "Illinois",
"state_code": "IL",
"postcode": 60612,
"lat": 41.8730374,
"lon": -87.685034
},
{
"Type": "Node",
"Name": "Clarendon Park Community Center",
"Street": "4501 N. Clarendon Ave.",
"City": "Chicago",
"county": "Cook County",
"state": "Illinois",
"state_code": "IL",
"postcode": 60640,
"lat": 41.9637298,
"lon": -87.6493063648395
},
{
"Type": "Node",
"Name": "Clark (John) Park",
"Street": "4615 W. Jackson Blvd.",
"City": "Chicago",
"county": "Cook County",
"state": "Illinois",
"state_code": "IL",
"postcode": 60644,
"lat": 41.8767319,
"lon": -87.7409670680188
},
{
"Type": "Node",
"Name": "Clark (Richard) Park",
"Street": "3400 N. Rockwell St.",
"City": "Chicago",
"county": "Cook County",
"state": "Illinois",
"state_code": "IL",
"postcode": 60618,
"lat": 41.939526,
"lon": -87.691989
},
{
"Type": "Node",
"Name": "Clover Park",
"Street": "2210 N. Southport Ave.",
"City": "Chicago",
"county": "Cook County",
"state": "Illinois",
"state_code": "IL",
"postcode": 60614,
"lat": 41.9219875,
"lon": -87.6632123
},
{
"Type": "Node",
"Name": "Clybourn Park",
"Street": "1755 N. Clybourn Ave.",
"City": "Chicago",
"county": "Cook County",
"state": "Illinois",
"state_code": "IL",
"postcode": 60614,
"lat": 41.9132306,
"lon": -87.6522941
},
{
"Type": "Node",
"Name": "Cochran Park",
"Street": "5550 N. Magnolia Ave.",
"City": "Chicago",
"county": "Cook County",
"state": "Illinois",
"state_code": "IL",
"postcode": 60640,
"lat": 41.98338205,
"lon": -87.66167835
},
{
"Type": "Node",
"Name": "Cole Park",
"Street": "361 E. 85th St.",
"City": "Chicago",
"county": "Cook County",
"state": "Illinois",
"state_code": "IL",
"postcode": "",
"lat": 41.7401439,
"lon": -87.6154437
},
{
"Type": "Node",
"Name": "Coleman Park",
"Street": "5445 S. Drexel Ave.",
"City": "Chicago",
"county": "Cook County",
"state": "Illinois",
"state_code": "IL",
"postcode": 60615,
"lat": 41.7964389,
"lon": -87.6035145244973
},
{
"Type": "Node",
"Name": "Coliseum Park",
"Street": "1466 S. Wabash Ave.",
"City": "Chicago",
"county": "Cook County",
"state": "Illinois",
"state_code": "IL",
"postcode": 60605,
"lat": 41.8621258,
"lon": -87.626166474829
},
{
"Type": "Node",
"Name": "Columbus Park",
"Street": "500 S. Central Ave.",
"City": "Chicago",
"county": "Cook County",
"state": "Illinois",
"state_code": "IL",
"postcode": 60644,
"lat": 41.8738619,
"lon": -87.7661544470605
},
{
"Type": "Node",
"Name": "Commercial Club Playground",
"Street": "1845 W. Rice St.",
"City": "Chicago",
"county": "Cook County",
"state": "Illinois",
"state_code": "IL",
"postcode": 60622,
"lat": 41.89666055,
"lon": -87.6741692938236
},
{
"Type": "Node",
"Name": "Connors Park",
"Street": "861 N. Wabash Ave.",
"City": "Chicago",
"county": "Cook County",
"state": "Illinois",
"state_code": "IL",
"postcode": 60611,
"lat": 41.8985042,
"lon": -87.6266481
},
{
"Type": "Node",
"Name": "Cooper Park",
"Street": "11712 S. Ada Street",
"City": "Chicago",
"county": "Cook County",
"state": "Illinois",
"state_code": "IL",
"postcode": 60607,
"lat": 41.8712019,
"lon": -87.6601569
},
{
"Type": "Node",
"Name": "Cornell Park",
"Street": "5473 S. Cornell Ave.",
"City": "Chicago",
"county": "Cook County",
"state": "Illinois",
"state_code": "IL",
"postcode": 60615,
"lat": 41.80084955,
"lon": -87.58562165
},
{
"Type": "Node",
"Name": "Cornell Square Park",
"Street": "1809 W. 50th St.",
"City": "Chicago",
"county": "Cook County",
"state": "Illinois",
"state_code": "IL",
"postcode": 60609,
"lat": 41.80186895,
"lon": -87.6708797893693
},
{
"Type": "Node",
"Name": "Cosme Park",
"Street": "9201 S. Longwood Dr.",
"City": "Chicago",
"county": "Cook County",
"state": "Illinois",
"state_code": "IL",
"postcode": "",
"lat": 41.7273304,
"lon": -87.6678518281724
},
{
"Type": "Node",
"Name": "Cotton Tail Park",
"Street": "44 W. 15th St.",
"City": "Chicago",
"county": "Cook County",
"state": "Illinois",
"state_code": "IL",
"postcode": 60605,
"lat": 41.8623748,
"lon": -87.6288753930031
},
{
"Type": "Node",
"Name": "Cottonwood Park",
"Street": "5058 W. West End Ave.",
"City": "Chicago",
"county": "Cook County",
"state": "Illinois",
"state_code": "IL",
"postcode": 60644,
"lat": 41.883433,
"lon": -87.752555
},
{
"Type": "Node",
"Name": "Cragin Park",
"Street": "2611 N. Lockwood Ave.",
"City": "Chicago",
"county": "Cook County",
"state": "Illinois",
"state_code": "IL",
"postcode": 60639,
"lat": 41.9281122,
"lon": -87.7584978246702
},
{
"Type": "Node",
"Name": "Crawford Park",
"Street": "1516 S. Karlov Ave.",
"City": "Chicago",
"county": "Cook County",
"state": "Illinois",
"state_code": "IL",
"postcode": 60623,
"lat": 41.86008155,
"lon": -87.7277938507405
},
{
"Type": "Node",
"Name": "Crescent Park",
"Street": "2200 W. 108th Pl.",
"City": "Chicago",
"county": "Cook County",
"state": "Illinois",
"state_code": "IL",
"postcode": "",
"lat": 41.697378,
"lon": -87.626078
},
{
"Type": "Node",
"Name": "Curie Park",
"Street": "4949 S. Archer Ave.",
"City": "Chicago",
"county": "Cook County",
"state": "Illinois",
"state_code": "IL",
"postcode": "",
"lat": 41.80317935,
"lon": -87.7192969310494
},
{
"Type": "Node",
"Name": "Daley Park",
"Street": "3150 S. Western Ave.",
"City": "Chicago",
"county": "Cook County",
"state": "Illinois",
"state_code": "IL",
"postcode": 60601,
"lat": 41.88272575,
"lon": -87.6187298392352
},
{
"Type": "Node",
"Name": "Davis Park",
"Street": "5427 W. Division St.",
"City": "Chicago",
"county": "Cook County",
"state": "Illinois",
"state_code": "IL",
"postcode": 60653,
"lat": 41.82034425,
"lon": -87.5995497999919
},
{
"Type": "Node",
"Name": "Davis Square Park",
"Street": "4430 S. Marshfield Ave.",
"City": "Chicago",
"county": "Cook County",
"state": "Illinois",
"state_code": "IL",
"postcode": 60609,
"lat": 41.81338035,
"lon": -87.6675286130001
},
{
"Type": "Node",
"Name": "Dawes Park",
"Street": "8052 S. Damen Ave.",
"City": "Chicago",
"county": "Cook County",
"state": "Illinois",
"state_code": "IL",
"postcode": "",
"lat": 41.836204,
"lon": -87.675456
},
{
"Type": "Node",
"Name": "de Burgos Park",
"Street": "1805 N. Albany Ave.",
"City": "Chicago",
"county": "Cook County",
"state": "Illinois",
"state_code": "IL",
"postcode": 60647,
"lat": 41.913903,
"lon": -87.704824
},
{
"Type": "Node",
"Name": "De George Playlot Park",
"Street": "4901 W. Wabansia Ave.",
"City": "Chicago",
"county": "Cook County",
"state": "Illinois",
"state_code": "IL",
"postcode": "",
"lat": 41.9125728,
"lon": -87.6871638
},
{
"Type": "Node",
"Name": "De Julio Playlot Park",
"Street": "6056 N. Landers Ave.",
"City": "Chicago",
"county": "Cook County",
"state": "Illinois",
"state_code": "IL",
"postcode": 60646,
"lat": 41.99083825,
"lon": -87.7537022513395
},
{
"Type": "Node",
"Name": "Dean Park",
"Street": "1344 N. Dean St.",
"City": "Chicago",
"county": "Cook County",
"state": "Illinois",
"state_code": "IL",
"postcode": 60622,
"lat": 41.906902,
"lon": -87.670881
},
{
"Type": "Node",
"Name": "Dearborn Park",
"Street": "865 S.Park Terrace",
"City": "Chicago",
"county": "Cook County",
"state": "Illinois",
"state_code": "IL",
"postcode": 60616,
"lat": 41.85773865,
"lon": -87.6191831779448
},
{
"Type": "Node",
"Name": "Debow Playlot Park",
"Street": "1126 E. 80th St.",
"City": "Chicago",
"county": "Cook County",
"state": "Illinois",
"state_code": "IL",
"postcode": "",
"lat": 41.7495369,
"lon": -87.596083
},
{
"Type": "Node",
"Name": "D'Elia Playlot Park",
"Street": "6340 N. Lakewood Ave.",
"City": "Chicago",
"county": "Cook County",
"state": "Illinois",
"state_code": "IL",
"postcode": 60660,
"lat": 41.9975513,
"lon": -87.66336675
},
{
"Type": "Node",
"Name": "Dickinson Park",
"Street": "4101 N. Lavergne Ave.",
"City": "Chicago",
"county": "Cook County",
"state": "Illinois",
"state_code": "IL",
"postcode": "",
"lat": 41.9556893,
"lon": -87.7520267113428
},
{
"Type": "Node",
"Name": "Dixon Park",
"Street": "8701 S. Dauphin Ave.",
"City": "Chicago",
"county": "Cook County",
"state": "Illinois",
"state_code": "IL",
"postcode": 60619,
"lat": 41.735144,
"lon": -87.601342
},
{
"Type": "Node",
"Name": "Dobson Park",
"Street": "7521 S. Dobson Ave.",
"City": "Chicago",
"county": "Cook County",
"state": "Illinois",
"state_code": "IL",
"postcode": "",
"lat": 41.7578146,
"lon": -87.5990094873199
},
{
"Type": "Node",
"Name": "Dogwood Park",
"Street": "2732 W.Polk St.",
"City": "Chicago",
"county": "Cook County",
"state": "Illinois",
"state_code": "IL",
"postcode": 60612,
"lat": 41.8713869,
"lon": -87.6695728
},
{
"Type": "Node",
"Name": "Donahue Park",
"Street": "1230 W. School St.",
"City": "Chicago",
"county": "Cook County",
"state": "Illinois",
"state_code": "IL",
"postcode": 60657,
"lat": 41.94190395,
"lon": -87.6602441453687
},
{
"Type": "Node",
"Name": "Donovan Park",
"Street": "3620 S.Lituanica Ave.",
"City": "Chicago",
"county": "Cook County",
"state": "Illinois",
"state_code": "IL",
"postcode": 60609,
"lat": 41.82813065,
"lon": -87.6478986
},
{
"Type": "Node",
"Name": "Dooley Park",
"Street": "3402 W. 77th St.",
"City": "Chicago",
"county": "Cook County",
"state": "Illinois",
"state_code": "IL",
"postcode": "",
"lat": 41.7538159,
"lon": -87.7078580586115
},
{
"Type": "Node",
"Name": "Doria Beach Park",
"Street": "1041 W. Columbia Ave.",
"City": "Chicago",
"county": "Cook County",
"state": "Illinois",
"state_code": "IL",
"postcode": 60626,
"lat": 42.0044689,
"lon": -87.6571204782258
},
{
"Type": "Node",
"Name": "Dougherty Park",
"Street": "9336 S. Kingston Ave.",
"City": "Chicago",
"county": "Cook County",
"state": "Illinois",
"state_code": "IL",
"postcode": "",
"lat": 41.72515545,
"lon": -87.5626203479313
},
{
"Type": "Node",
"Name": "Douglass Park",
"Street": "1401 S. Sacramento Dr.",
"City": "Chicago",
"county": "Cook County",
"state": "Illinois",
"state_code": "IL",
"postcode": 60623,
"lat": 41.8623929,
"lon": -87.6996901563664
},
{
"Type": "Node",
"Name": "Drexel Park",
"Street": "6931 S. Damen Ave.",
"City": "Chicago",
"county": "Cook County",
"state": "Illinois",
"state_code": "IL",
"postcode": 60636,
"lat": 41.7673966,
"lon": -87.6732406995797
},
{
"Type": "Node",
"Name": "Dubkin Park",
"Street": "7442 N. Ashland Ave.",
"City": "Chicago",
"county": "Cook County",
"state": "Illinois",
"state_code": "IL",
"postcode": "",
"lat": 41.883957,
"lon": -87.666811
},
{
"Type": "Node",
"Name": "Dunbar Park",
"Street": "300 E. 31st St.",
"City": "Chicago",
"county": "Cook County",
"state": "Illinois",
"state_code": "IL",
"postcode": 60616,
"lat": 41.84022825,
"lon": -87.6204627560198
},
{
"Type": "Node",
"Name": "Dunham Park",
"Street": "4638 N. Melvina Ave.",
"City": "Chicago",
"county": "Cook County",
"state": "Illinois",
"state_code": "IL",
"postcode": 60630,
"lat": 41.96587575,
"lon": -87.7825277036612
},
{
"Type": "Node",
"Name": "Durkin Park",
"Street": "8445 S. Kolin Ave.",
"City": "Chicago",
"county": "Cook County",
"state": "Illinois",
"state_code": "IL",
"postcode": 60652,
"lat": 41.7390457,
"lon": -87.7276378397471
},
{
"Type": "Node",
"Name": "Durso Park",
"Street": "421 W. Locust St.",
"City": "Chicago",
"county": "Cook County",
"state": "Illinois",
"state_code": "IL",
"postcode": 60610,
"lat": 41.8982089,
"lon": -87.6396033525285
},
{
"Type": "Node",
"Name": "DuSable Park",
"Street": "401 N. Lake Shore Dr.",
"City": "Chicago",
"county": "Cook County",
"state": "Illinois",
"state_code": "IL",
"postcode": "",
"lat": 41.8893114,
"lon": -87.6132103875747
},
{
"Type": "Node",
"Name": "Dvorak Park",
"Street": "1119 W. Cullerton St.",
"City": "Chicago",
"county": "Cook County",
"state": "Illinois",
"state_code": "IL",
"postcode": 60608,
"lat": 41.8538796,
"lon": -87.6542916666104
},
{
"Type": "Node",
"Name": "Eckersall Park",
"Street": "2400 E. 82nd St.",
"City": "Chicago",
"county": "Cook County",
"state": "Illinois",
"state_code": "IL",
"postcode": 60617,
"lat": 41.7457474,
"lon": -87.5649277096191
},
{
"Type": "Node",
"Name": "Eckhart Park",
"Street": "1330 W. Chicago Ave.",
"City": "Chicago",
"county": "Cook County",
"state": "Illinois",
"state_code": "IL",
"postcode": 60642,
"lat": 41.8963724,
"lon": -87.661
},
{
"Type": "Node",
"Name": "Edgebrook Park",
"Street": "6525 N. Hiawatha Ave.",
"City": "Chicago",
"county": "Cook County",
"state": "Illinois",
"state_code": "IL",
"postcode": 60646,
"lat": 42.00099745,
"lon": -87.7616424317496
},
{
"Type": "Node",
"Name": "Edison Park",
"Street": "6755 N. Northwest Hwy.",
"City": "Chicago",
"county": "Cook County",
"state": "Illinois",
"state_code": "IL",
"postcode": 60631,
"lat": 42.00404685,
"lon": -87.817587377627
},
{
"Type": "Node",
"Name": "Edmonds Park",
"Street": "711 W. 60th Pl.",
"City": "Chicago",
"county": "Cook County",
"state": "Illinois",
"state_code": "IL",
"postcode": 60621,
"lat": 41.7842187,
"lon": -87.6430297
},
{
"Type": "Node",
"Name": "Ehrler Park",
"Street": "2230 W. Cortland St",
"City": "Chicago",
"county": "Cook County",
"state": "Illinois",
"state_code": "IL",
"postcode": 60647,
"lat": 41.9161136,
"lon": -87.683654
},
{
"Type": "Node",
"Name": "Ellis Park",
"Street": "3520 S. Cottage Grove Ave.",
"City": "Chicago",
"county": "Cook County",
"state": "Illinois",
"state_code": "IL",
"postcode": 60653,
"lat": 41.82937395,
"lon": -87.6107100292706
},
{
"Type": "Node",
"Name": "Elm Park",
"Street": "5215 S. Woodlawn Ave.",
"City": "Chicago",
"county": "Cook County",
"state": "Illinois",
"state_code": "IL",
"postcode": 60637,
"lat": 41.7897893,
"lon": -87.5959940121114
},
{
"Type": "Node",
"Name": "Elston Park",
"Street": "3451 N. Troy St.",
"City": "Chicago",
"county": "Cook County",
"state": "Illinois",
"state_code": "IL",
"postcode": "",
"lat": 41.94433115,
"lon": -87.7061983408478
},
{
"Type": "Node",
"Name": "Emerald Park",
"Street": "5600 S. Emerald Ave.",
"City": "Chicago",
"county": "Cook County",
"state": "Illinois",
"state_code": "IL",
"postcode": 60621,
"lat": 41.7923138,
"lon": -87.6442152502909
},
{
"Type": "Node",
"Name": "Emmerson Park",
"Street": "1820 W. Granville Ave.",
"City": "Chicago",
"county": "Cook County",
"state": "Illinois",
"state_code": "IL",
"postcode": 60660,
"lat": 41.99459375,
"lon": -87.6769645802546
},
{
"Type": "Node",
"Name": "Essex Park",
"Street": "7687 S. Chicago Ave.",
"City": "Chicago",
"county": "Cook County",
"state": "Illinois",
"state_code": "IL",
"postcode": "",
"lat": 41.75510855,
"lon": -87.5899913491178
},
{
"Type": "Node",
"Name": "Euclid Park",
"Street": "9800 S. Parnell Ave.",
"City": "Chicago",
"county": "Cook County",
"state": "Illinois",
"state_code": "IL",
"postcode": "",
"lat": 41.7169062,
"lon": -87.6376400081081
},
{
"Type": "Node",
"Name": "Eugene Field Park",
"Street": "5100 N. Ridgeway Ave.",
"City": "Chicago",
"county": "Cook County",
"state": "Illinois",
"state_code": "IL",
"postcode": 60625,
"lat": 41.97486725,
"lon": -87.7224035588125
},
{
"Type": "Node",
"Name": "Eugenie Triangle Park",
"Street": "1701 N. LaSalle St.",
"City": "Chicago",
"county": "Cook County",
"state": "Illinois",
"state_code": "IL",
"postcode": 60614,
"lat": 41.9132769,
"lon": -87.6331170334787
},
{
"Type": "Node",
"Name": "Evergreen Park",
"Street": "631 W. Belmont Ave.",
"City": "Chicago",
"county": "Cook County",
"state": "Illinois",
"state_code": "IL",
"postcode": 60657,
"lat": 41.93976765,
"lon": -87.64568165
},
{
"Type": "Node",
"Name": "Fargo Beach Park",
"Street": "1300 W. Fargo Ave.",
"City": "Chicago",
"county": "Cook County",
"state": "Illinois",
"state_code": "IL",
"postcode": 60626,
"lat": 42.0171642,
"lon": -87.6628886451488
},
{
"Type": "Node",
"Name": "Fellger Park",
"Street": "2000 W. Belmont Ave.",
"City": "Chicago",
"county": "Cook County",
"state": "Illinois",
"state_code": "IL",
"postcode": "",
"lat": 41.93982915,
"lon": -87.6789321
},
{
"Type": "Node",
"Name": "Fernwood Park",
"Street": "10436 S. Wallace St.",
"City": "Chicago",
"county": "Cook County",
"state": "Illinois",
"state_code": "IL",
"postcode": 60616,
"lat": 41.849042,
"lon": -87.641483
},
{
"Type": "Node",
"Name": "Fernwood Parkway Park",
"Street": "9501 S. Eggleston Ave.",
"City": "Chicago",
"county": "Cook County",
"state": "Illinois",
"state_code": "IL",
"postcode": "",
"lat": 41.786231,
"lon": -87.636433
},
{
"Type": "Node",
"Name": "Filbert Park",
"Street": "1822 W. Larchmont Ave.",
"City": "Chicago",
"county": "Cook County",
"state": "Illinois",
"state_code": "IL",
"postcode": "",
"lat": 41.95352125,
"lon": -87.6757271
},
{
"Type": "Node",
"Name": "Flower Park",
"Street": "2554 W. Moffat St.",
"City": "Chicago",
"county": "Cook County",
"state": "Illinois",
"state_code": "IL",
"postcode": 60647,
"lat": 41.9150824,
"lon": -87.691933082796
},
{
"Type": "Node",
"Name": "Flying Squirrel Park",
"Street": "6600 S. Woodlawn Ave",
"City": "Chicago",
"county": "Cook County",
"state": "Illinois",
"state_code": "IL",
"postcode": 60637,
"lat": 41.7748431,
"lon": -87.59641695
},
{
"Type": "Node",
"Name": "Forest Glen Park",
"Street": "5069 W. Berwyn Ave.",
"City": "Chicago",
"county": "Cook County",
"state": "Illinois",
"state_code": "IL",
"postcode": 60630,
"lat": 41.97753355,
"lon": -87.7545685867925
},
{
"Type": "Node",
"Name": "Fosco Park",
"Street": "1312 S. Racine Ave",
"City": "Chicago",
"county": "Cook County",
"state": "Illinois",
"state_code": "IL",
"postcode": 60608,
"lat": 41.86430755,
"lon": -87.6572300989886
},
{
"Type": "Node",
"Name": "Foster Park",
"Street": "1440 W. 84th St.",
"City": "Chicago",
"county": "Cook County",
"state": "Illinois",
"state_code": "IL",
"postcode": 60620,
"lat": 41.741604,
"lon": -87.650375
},
{
"Type": "Node",
"Name": "Franklin Park",
"Street": "4320 W. 15th St.",
"City": "Chicago",
"county": "Cook County",
"state": "Illinois",
"state_code": "IL",
"postcode": 60623,
"lat": 41.8615005,
"lon": -87.7323738991354
},
{
"Type": "Node",
"Name": "Fuller Park",
"Street": "331 W. 45th St",
"City": "Chicago",
"county": "Cook County",
"state": "Illinois",
"state_code": "IL",
"postcode": 60609,
"lat": 41.81198345,
"lon": -87.6349296850891
},
{
"Type": "Node",
"Name": "Gage Park",
"Street": "2411 W. 55th St.",
"City": "Chicago",
"county": "Cook County",
"state": "Illinois",
"state_code": "IL",
"postcode": 60629,
"lat": 41.79362765,
"lon": -87.6849642674455
},
{
"Type": "Node",
"Name": "Galewood Park",
"Street": "5729 W. Bloomingdale Ave.",
"City": "Chicago",
"county": "Cook County",
"state": "Illinois",
"state_code": "IL",
"postcode": 60639,
"lat": 41.9123319,
"lon": -87.7686651351422
},
{
"Type": "Node",
"Name": "Garfield Park",
"Street": "100 N. Central Park Ave.",
"City": "Chicago",
"county": "Cook County",
"state": "Illinois",
"state_code": "IL",
"postcode": 60624,
"lat": 41.886827,
"lon": -87.7185795035983
},
{
"Type": "Node",
"Name": "Garfield Park Community Plaza",
"Street": "4008 W. Madison Ave.",
"City": "Chicago",
"county": "Cook County",
"state": "Illinois",
"state_code": "IL",
"postcode": 60624,
"lat": 41.883541,
"lon": -87.726236
},
{
"Type": "Node",
"Name": "Garibaldi Park",
"Street": "1520 W. Polk St.",
"City": "Chicago",
"county": "Cook County",
"state": "Illinois",
"state_code": "IL",
"postcode": "",
"lat": 41.8724775,
"lon": -87.6653021363383
},
{
"Type": "Node",
"Name": "Gately Park",
"Street": "10201 S. Cottage Grove",
"City": "Chicago",
"county": "Cook County",
"state": "Illinois",
"state_code": "IL",
"postcode": 60628,
"lat": 41.70908695,
"lon": -87.6039323974831
},
{
"Type": "Node",
"Name": "Gill Park",
"Street": "825 W. Sheridan Rd.",
"City": "Chicago",
"county": "Cook County",
"state": "Illinois",
"state_code": "IL",
"postcode": 60613,
"lat": 41.95208215,
"lon": -87.6505337279667
},
{
"Type": "Node",
"Name": "Ginkgo Park",
"Street": "1448 S. Trumbull Ave.",
"City": "Chicago",
"county": "Cook County",
"state": "Illinois",
"state_code": "IL",
"postcode": 60623,
"lat": 41.8610426,
"lon": -87.7116117
},
{
"Type": "Node",
"Name": "Gladstone Park",
"Street": "5421 N. Menard Ave.",
"City": "Chicago",
"county": "Cook County",
"state": "Illinois",
"state_code": "IL",
"postcode": 60630,
"lat": 41.9794015,
"lon": -87.7729394421836
},
{
"Type": "Node",
"Name": "Gladys Park",
"Street": "3301 W. Gladys Ave",
"City": "Chicago",
"county": "Cook County",
"state": "Illinois",
"state_code": "IL",
"postcode": 60624,
"lat": 41.8760118,
"lon": -87.7087702283569
},
{
"Type": "Node",
"Name": "Goldberg Park",
"Street": "7043 N. Glenwood Ave.",
"City": "Chicago",
"county": "Cook County",
"state": "Illinois",
"state_code": "IL",
"postcode": 60626,
"lat": 42.01083,
"lon": -87.66556
},
{
"Type": "Node",
"Name": "Golden Gate Park",
"Street": "13000 S. Eberhart Ave.",
"City": "Chicago",
"county": "Cook County",
"state": "Illinois",
"state_code": "IL",
"postcode": 60827,
"lat": 41.65808835,
"lon": -87.6115334359074
},
{
"Type": "Node",
"Name": "Gompers Park",
"Street": "4222 W. Foster Ave.",
"City": "Chicago",
"county": "Cook County",
"state": "Illinois",
"state_code": "IL",
"postcode": "",
"lat": 41.97392,
"lon": -87.73034
},
{
"Type": "Node",
"Name": "Gooseberry Park",
"Street": "4648 N. Malden St.",
"City": "Chicago",
"county": "Cook County",
"state": "Illinois",
"state_code": "IL",
"postcode": 60640,
"lat": 41.966731,
"lon": -87.6630018882254
},
{
"Type": "Node",
"Name": "Goudy Square Park",
"Street": "1249 N. Astor St.",
"City": "Chicago",
"county": "Cook County",
"state": "Illinois",
"state_code": "IL",
"postcode": 60610,
"lat": 41.9055822,
"lon": -87.6268383109948
},
{
"Type": "Node",
"Name": "Grand Crossing Park",
"Street": "7655 S. Ingleside Ave.",
"City": "Chicago",
"county": "Cook County",
"state": "Illinois",
"state_code": "IL",
"postcode": 60619,
"lat": 41.7549766,
"lon": -87.6004225285442
},
{
"Type": "Node",
"Name": "Grand Park",
"Street": "3529 W. Grand Ave.",
"City": "Chicago",
"county": "Cook County",
"state": "Illinois",
"state_code": "IL",
"postcode": 60651,
"lat": 41.9013163,
"lon": -87.7149467729624
},
{
"Type": "Node",
"Name": "Grandparents Park",
"Street": "5445 N. Chester St.",
"City": "Chicago",
"county": "Cook County",
"state": "Illinois",
"state_code": "IL",
"postcode": "",
"lat": 41.87897,
"lon": -87.66063
},
{
"Type": "Node",
"Name": "Grant Park",
"Street": "331 E. Randolph St.",
"City": "Chicago",
"county": "Cook County",
"state": "Illinois",
"state_code": "IL",
"postcode": 60601,
"lat": 41.8766031,
"lon": -87.6192903779526
},
{
"Type": "Node",
"Name": "Grape Park",
"Street": "2850 W. Avondale Ave.",
"City": "Chicago",
"county": "Cook County",
"state": "Illinois",
"state_code": "IL",
"postcode": "",
"lat": 41.917774,
"lon": -87.699265
},
{
"Type": "Node",
"Name": "Graver Park",
"Street": "1518 W. 102nd Pl.",
"City": "Chicago",
"county": "Cook County",
"state": "Illinois",
"state_code": "IL",
"postcode": 60643,
"lat": 41.70790845,
"lon": -87.6606545631416
},
{
"Type": "Node",
"Name": "Green Briar Park",
"Street": "2650 W. Peterson Ave",
"City": "Chicago",
"county": "Cook County",
"state": "Illinois",
"state_code": "IL",
"postcode": 60659,
"lat": 41.99151215,
"lon": -87.6963898531795
},
{
"Type": "Node",
"Name": "Green Park",
"Street": "6500 N. Algonquin Ave",
"City": "Chicago",
"county": "Cook County",
"state": "Illinois",
"state_code": "IL",
"postcode": 60646,
"lat": 41.99967565,
"lon": -87.7662633141573
},
{
"Type": "Node",
"Name": "Greenebaum Park",
"Street": "4300 W. Wabansia Ave.",
"City": "Chicago",
"county": "Cook County",
"state": "Illinois",
"state_code": "IL",
"postcode": "",
"lat": 41.9125724,
"lon": -87.6871898
},
{
"Type": "Node",
"Name": "Griffin Park",
"Street": "1230 West Jarvis Avenue",
"City": "Chicago",
"county": "Cook County",
"state": "Illinois",
"state_code": "IL",
"postcode": 60626,
"lat": 42.016611,
"lon": -87.663769
},
{
"Type": "Node",
"Name": "Gross Park",
"Street": "2708 W. Lawrence Ave.",
"City": "Chicago",
"county": "Cook County",
"state": "Illinois",
"state_code": "IL",
"postcode": 60625,
"lat": 41.9692814,
"lon": -87.6966798168594
},
{
"Type": "Node",
"Name": "Haas Park",
"Street": "2402 N. Washtenaw Ave.",
"City": "Chicago",
"county": "Cook County",
"state": "Illinois",
"state_code": "IL",
"postcode": 60647,
"lat": 41.92512875,
"lon": -87.6953451447182
},
{
"Type": "Node",
"Name": "Haines School Park",
"Street": "247 W. 23rd Pl",
"City": "Chicago",
"county": "Cook County",
"state": "Illinois",
"state_code": "IL",
"postcode": 60616,
"lat": 41.8499331,
"lon": -87.6339472
},
{
"Type": "Node",
"Name": "Hale Park",
"Street": "6258 W. 62nd St.",
"City": "Chicago",
"county": "Cook County",
"state": "Illinois",
"state_code": "IL",
"postcode": 60629,
"lat": 41.7809876,
"lon": -87.6833355
},
{
"Type": "Node",
"Name": "Hamilton Park",
"Street": "513 W. 72nd St.",
"City": "Chicago",
"county": "Cook County",
"state": "Illinois",
"state_code": "IL",
"postcode": 60621,
"lat": 41.7628602,
"lon": -87.6376653721765
},
{
"Type": "Node",
"Name": "Hamlin Park",
"Street": "3035 N. Hoyne Ave.",
"City": "Chicago",
"county": "Cook County",
"state": "Illinois",
"state_code": "IL",
"postcode": "",
"lat": 41.9367038,
"lon": -87.6794894640288
},
{
"Type": "Node",
"Name": "Hansberry Park",
"Street": "5635 S. Indiana Ave",
"City": "Chicago",
"county": "Cook County",
"state": "Illinois",
"state_code": "IL",
"postcode": 60637,
"lat": 41.79192165,
"lon": -87.6203205236722
},
{
"Type": "Node",
"Name": "Harding (Frederick) Park",
"Street": "3917 W. Division St.",
"City": "Chicago",
"county": "Cook County",
"state": "Illinois",
"state_code": "IL",
"postcode": 60651,
"lat": 41.9026908,
"lon": -87.7246267
},
{
"Type": "Node",
"Name": "Harding (George) Park",
"Street": "4912 S. Calumet Ave.",
"City": "Chicago",
"county": "Cook County",
"state": "Illinois",
"state_code": "IL",
"postcode": 60615,
"lat": 41.805256,
"lon": -87.6183752208229
},
{
"Type": "Node",
"Name": "Harris (Harriet) Park",
"Street": "6200 S. Drexel Ave.",
"City": "Chicago",
"county": "Cook County",
"state": "Illinois",
"state_code": "IL",
"postcode": 60637,
"lat": 41.7818494,
"lon": -87.6049324
},
{
"Type": "Node",
"Name": "Harris Memorial Park",
"Street": "6781 S. Lowe Ave.",
"City": "Chicago",
"county": "Cook County",
"state": "Illinois",
"state_code": "IL",
"postcode": "",
"lat": 41.769848,
"lon": -87.639908
},
{
"Type": "Node",
"Name": "Harrison Park",
"Street": "1824 S. Wood St.",
"City": "Chicago",
"county": "Cook County",
"state": "Illinois",
"state_code": "IL",
"postcode": 60608,
"lat": 41.85614,
"lon": -87.67311
},
{
"Type": "Node",
"Name": "Harsh Park",
"Street": "4458-70 S. Oakenwald Ave.",
"City": "Chicago",
"county": "Cook County",
"state": "Illinois",
"state_code": "IL",
"postcode": 60653,
"lat": 41.81391055,
"lon": -87.59550405
},
{
"Type": "Node",
"Name": "Hartigan Beach Park",
"Street": "1050 W. Albion Ave.",
"City": "Chicago",
"county": "Cook County",
"state": "Illinois",
"state_code": "IL",
"postcode": 60626,
"lat": 42.0023958,
"lon": -87.6571373823105
},
{
"Type": "Node",
"Name": "Hasan Park",
"Street": "6855 S. Oglesby Ave.",
"City": "Chicago",
"county": "Cook County",
"state": "Illinois",
"state_code": "IL",
"postcode": 60649,
"lat": 41.77131665,
"lon": -87.5670549667031
},
{
"Type": "Node",
"Name": "Hayes Park",
"Street": "2936 W. 85th St.",
"City": "Chicago",
"county": "Cook County",
"state": "Illinois",
"state_code": "IL",
"postcode": 60652,
"lat": 41.740394,
"lon": -87.696863372089
},
{
"Type": "Node",
"Name": "Hazelnut Park",
"Street": "5949 W. Huron St.",
"City": "Chicago",
"county": "Cook County",
"state": "Illinois",
"state_code": "IL",
"postcode": 60644,
"lat": 41.89254245,
"lon": -87.7741006993206
},
{
"Type": "Node",
"Name": "Hegewisch Marsh Park",
"Street": "13200-13298 S. Torrence Ave.",
"City": "Chicago",
"county": "Cook County",
"state": "Illinois",
"state_code": "IL",
"postcode": "",
"lat": 41.721077,
"lon": -87.559854
},
{
"Type": "Node",
"Name": "Heritage Green Park",
"Street": "610-30 W. Adams St.",
"City": "Chicago",
"county": "Cook County",
"state": "Illinois",
"state_code": "IL",
"postcode": "",
"lat": 41.87959625,
"lon": -87.6435156848692
},
{
"Type": "Node",
"Name": "Hermitage Park",
"Street": "5839 S. Wood St.",
"City": "Chicago",
"county": "Cook County",
"state": "Illinois",
"state_code": "IL",
"postcode": 60636,
"lat": 41.7872081,
"lon": -87.6684675972
},
{
"Type": "Node",
"Name": "Hermosa Park",
"Street": "2240 N. Kilbourn Ave.",
"City": "Chicago",
"county": "Cook County",
"state": "Illinois",
"state_code": "IL",
"postcode": 60639,
"lat": 41.92204225,
"lon": -87.7396089012054
},
{
"Type": "Node",
"Name": "Hiawatha Park",
"Street": "8029 W. Forest Preserve Ave.",
"City": "Chicago",
"county": "Cook County",
"state": "Illinois",
"state_code": "IL",
"postcode": 60634,
"lat": 41.94412505,
"lon": -87.8256413757074
},
{
"Type": "Node",
"Name": "Hickory Park",
"Street": "4834 N. Winthrop Ave.",
"City": "Chicago",
"county": "Cook County",
"state": "Illinois",
"state_code": "IL",
"postcode": 60640,
"lat": 41.97016985,
"lon": -87.6580400869833
},
{
"Type": "Node",
"Name": "Hoard Park",
"Street": "7201 S. Dobson Ave.",
"City": "Chicago",
"county": "Cook County",
"state": "Illinois",
"state_code": "IL",
"postcode": "",
"lat": 41.76372565,
"lon": -87.5984867472389
},
{
"Type": "Node",
"Name": "Hodes Park",
"Street": "1607 E. 73rd St",
"City": "Chicago",
"county": "Cook County",
"state": "Illinois",
"state_code": "IL",
"postcode": "",
"lat": 41.76198,
"lon": -87.58533
},
{
"Type": "Node",
"Name": "Holly Park",
"Street": "4046 S. Ellis Ave.",
"City": "Chicago",
"county": "Cook County",
"state": "Illinois",
"state_code": "IL",
"postcode": 60637,
"lat": 41.790447,
"lon": -87.602814
},
{
"Type": "Node",
"Name": "Hollywood Park",
"Street": "3312 W. Thorndale Ave.",
"City": "Chicago",
"county": "Cook County",
"state": "Illinois",
"state_code": "IL",
"postcode": 60659,
"lat": 41.989065,
"lon": -87.7117223566744
},
{
"Type": "Node",
"Name": "Holstein Park",
"Street": "2200 N. Oakley Ave.",
"City": "Chicago",
"county": "Cook County",
"state": "Illinois",
"state_code": "IL",
"postcode": 60647,
"lat": 41.92173775,
"lon": -87.6850960726718
},
{
"Type": "Node",
"Name": "Homan Park",
"Street": "2140 S. Homan Avenue",
"City": "Chicago",
"county": "Cook County",
"state": "Illinois",
"state_code": "IL",
"postcode": 60623,
"lat": 41.85225445,
"lon": -87.7104490882813
},
{
"Type": "Node",
"Name": "Homan Square Community Center Park",
"Street": "3559 W. Arthington",
"City": "Chicago",
"county": "Cook County",
"state": "Illinois",
"state_code": "IL",
"postcode": 60624,
"lat": 41.8692644,
"lon": -87.7137789
},
{
"Type": "Node",
"Name": "Honeysuckle Park",
"Street": "4635 S. Champlain Ave.",
"City": "Chicago",
"county": "Cook County",
"state": "Illinois",
"state_code": "IL",
"postcode": 60653,
"lat": 41.81015225,
"lon": -87.6098743006312
},
{
"Type": "Node",
"Name": "Honor Palmer Park",
"Street": "916 N. Honore St.",
"City": "Chicago",
"county": "Cook County",
"state": "Illinois",
"state_code": "IL",
"postcode": 60622,
"lat": 41.8983943,
"lon": -87.6737959462829
},
{
"Type": "Node",
"Name": "Horan Park",
"Street": "3035 W. Van Buren St",
"City": "Chicago",
"county": "Cook County",
"state": "Illinois",
"state_code": "IL",
"postcode": 60612,
"lat": 41.8754883,
"lon": -87.7037059650112
},
{
"Type": "Node",
"Name": "Hornbeam Park",
"Street": "416-26 S.Hamlin Ave.",
"City": "Chicago",
"county": "Cook County",
"state": "Illinois",
"state_code": "IL",
"postcode": 60623,
"lat": 41.8443222,
"lon": -87.7196687
},
{
"Type": "Node",
"Name": "Horner Park",
"Street": "2741 W. Montrose Ave",
"City": "Chicago",
"county": "Cook County",
"state": "Illinois",
"state_code": "IL",
"postcode": 60618,
"lat": 41.9576999,
"lon": -87.696429481878
},
{
"Type": "Node",
"Name": "Houston Park",
"Street": "5001 S. Cottage Grove Ave.",
"City": "Chicago",
"county": "Cook County",
"state": "Illinois",
"state_code": "IL",
"postcode": "",
"lat": 41.8036147,
"lon": -87.6053306248571
},
{
"Type": "Node",
"Name": "Howard Beach Park",
"Street": "7519 N. Eastlake Terrace",
"City": "Chicago",
"county": "Cook County",
"state": "Illinois",
"state_code": "IL",
"postcode": 60626,
"lat": 42.01886095,
"lon": -87.6640025785335
},
{
"Type": "Node",
"Name": "Hoyne Park",
"Street": "3417 S. Hamiltion Ave.",
"City": "Chicago",
"county": "Cook County",
"state": "Illinois",
"state_code": "IL",
"postcode": 60608,
"lat": 41.83177305,
"lon": -87.6783621418636
},
{
"Type": "Node",
"Name": "Hubbard Park",
"Street": "4942-58 W. Hubbard St.",
"City": "Chicago",
"county": "Cook County",
"state": "Illinois",
"state_code": "IL",
"postcode": 60644,
"lat": 41.8889065,
"lon": -87.7500620583187
},
{
"Type": "Node",
"Name": "Huckleberry Park",
"Street": "6200 S. Kimbark Ave.",
"City": "Chicago",
"county": "Cook County",
"state": "Illinois",
"state_code": "IL",
"postcode": 60637,
"lat": 41.7822069,
"lon": -87.59513399944
},
{
"Type": "Node",
"Name": "Humbert Park",
"Street": "3050 South Lowe Ave.",
"City": "Chicago",
"county": "Cook County",
"state": "Illinois",
"state_code": "IL",
"postcode": 60616,
"lat": 41.8383397,
"lon": -87.642998273332
},
{
"Type": "Node",
"Name": "Humboldt Park",
"Street": "1440 N. Sacramento",
"City": "Chicago",
"county": "Cook County",
"state": "Illinois",
"state_code": "IL",
"postcode": 60647,
"lat": 41.9103531,
"lon": -87.701629
},
{
"Type": "Node",
"Name": "Hurley Park",
"Street": "1901 W. 100th St.",
"City": "Chicago",
"county": "Cook County",
"state": "Illinois",
"state_code": "IL",
"postcode": "",
"lat": 41.71169365,
"lon": -87.6702004655575
},
{
"Type": "Node",
"Name": "Independence Park",
"Street": "3945 N. Springfield Ave",
"City": "Chicago",
"county": "Cook County",
"state": "Illinois",
"state_code": "IL",
"postcode": 60618,
"lat": 41.9525774,
"lon": -87.7238808939031
},
{
"Type": "Node",
"Name": "Indian Boundary Park",
"Street": "2500 W. Lunt Ave.",
"City": "Chicago",
"county": "Cook County",
"state": "Illinois",
"state_code": "IL",
"postcode": 60645,
"lat": 42.00897,
"lon": -87.692575
},
{
"Type": "Node",
"Name": "Indian Ridge Marsh Park (Park No. 565)",
"Street": "11600 S. Torrence Ave.",
"City": "Chicago",
"county": "Cook County",
"state": "Illinois",
"state_code": "IL",
"postcode": 60617,
"lat": 41.677284,
"lon": -87.561237
},
{
"Type": "Node",
"Name": "Indian Road Park",
"Street": "6010 W. Matson Ave.",
"City": "Chicago",
"county": "Cook County",
"state": "Illinois",
"state_code": "IL",
"postcode": 60646,
"lat": 41.9933806,
"lon": -87.7784659334911
},
{
"Type": "Node",
"Name": "Jackson (Andrew) Park",
"Street": "6401 S. Stony Island Ave.",
"City": "Chicago",
"county": "Cook County",
"state": "Illinois",
"state_code": "IL",
"postcode": 60637,
"lat": 41.7788187,
"lon": -87.5854560077335
},
{
"Type": "Node",
"Name": "Jackson (Mahalia) Park",
"Street": "8385 S. Birkhoff Ave",
"City": "Chicago",
"county": "Cook County",
"state": "Illinois",
"state_code": "IL",
"postcode": "",
"lat": 41.741919,
"lon": -87.639397
},
{
"Type": "Node",
"Name": "Jackson (Robert) Park",
"Street": "4319 S. Indiana Ave.",
"City": "Chicago",
"county": "Cook County",
"state": "Illinois",
"state_code": "IL",
"postcode": 60653,
"lat": 41.8160289,
"lon": -87.6209706707012
},
{
"Type": "Node",
"Name": "Jacob Park",
"Street": "4674 N.Virginia Ave.",
"City": "Chicago",
"county": "Cook County",
"state": "Illinois",
"state_code": "IL",
"postcode": "",
"lat": 41.9664651,
"lon": -87.6981608391774
},
{
"Type": "Node",
"Name": "Jacolik Park",
"Street": "2731 South Eleanor Street",
"City": "Chicago",
"county": "Cook County",
"state": "Illinois",
"state_code": "IL",
"postcode": 60608,
"lat": 41.843795,
"lon": -87.6610982778702
},
{
"Type": "Node",
"Name": "Jefferson (Nancy) Park",
"Street": "3101 W. Fulton St.",
"City": "Chicago",
"county": "Cook County",
"state": "Illinois",
"state_code": "IL",
"postcode": 60612,
"lat": 41.886453,
"lon": -87.703818
},
{
"Type": "Node",
"Name": "Jefferson (Thomas) Park",
"Street": "1709 S. Des Plaines St.",
"City": "Chicago",
"county": "Cook County",
"state": "Illinois",
"state_code": "IL",
"postcode": 60616,
"lat": 41.858263,
"lon": -87.643085
},
{
"Type": "Node",
"Name": "Jefferson Memorial Park",
"Street": "4822 N. Long Ave.",
"City": "Chicago",
"county": "Cook County",
"state": "Illinois",
"state_code": "IL",
"postcode": 60630,
"lat": 41.96847225,
"lon": -87.7637365049135
},
{
"Type": "Node",
"Name": "Jensen Park",
"Street": "4650 N. Lawndale Ave.",
"City": "Chicago",
"county": "Cook County",
"state": "Illinois",
"state_code": "IL",
"postcode": "",
"lat": 41.89458,
"lon": -87.718729
},
{
"Type": "Node",
"Name": "Jones Park",
"Street": "1240 S. Plymouth Ct.",
"City": "Chicago",
"county": "Cook County",
"state": "Illinois",
"state_code": "IL",
"postcode": 60605,
"lat": 41.8661232,
"lon": -87.6289621351854
},
{
"Type": "Node",
"Name": "Jonquil Park",
"Street": "1001 W. Wrightwood Ave.",
"City": "Chicago",
"county": "Cook County",
"state": "Illinois",
"state_code": "IL",
"postcode": "",
"lat": 41.92849435,
"lon": -87.6546997659534
},
{
"Type": "Node",
"Name": "Junction Grove Park",
"Street": "345 W. 64th St.",
"City": "Chicago",
"county": "Cook County",
"state": "Illinois",
"state_code": "IL",
"postcode": 60636,
"lat": 41.77782755,
"lon": -87.6343146567184
},
{
"Type": "Node",
"Name": "Juneway Beach Park",
"Street": "7751 N. Eastlake Terrace",
"City": "Chicago",
"county": "Cook County",
"state": "Illinois",
"state_code": "IL",
"postcode": 60626,
"lat": 42.0223754,
"lon": -87.6652828659259
},
{
"Type": "Node",
"Name": "Juniper Park",
"Street": "3652 N. Greenview Ave.",
"City": "Chicago",
"county": "Cook County",
"state": "Illinois",
"state_code": "IL",
"postcode": "",
"lat": 41.897931,
"lon": -87.664929
},
{
"Type": "Node",
"Name": "Kedvale Park",
"Street": "4134 W. Hirsch St.",
"City": "Chicago",
"county": "Cook County",
"state": "Illinois",
"state_code": "IL",
"postcode": 60651,
"lat": 41.90659995,
"lon": -87.7300849512538
},
{
"Type": "Node",
"Name": "Keeler Park",
"Street": "1243 S. Keeler Ave.",
"City": "Chicago",
"county": "Cook County",
"state": "Illinois",
"state_code": "IL",
"postcode": 60624,
"lat": 41.87385165,
"lon": -87.7301477950145
},
{
"Type": "Node",
"Name": "Kells Park",
"Street": "3201 W. Chicago Ave.",
"City": "Chicago",
"county": "Cook County",
"state": "Illinois",
"state_code": "IL",
"postcode": 60651,
"lat": 41.895541,
"lon": -87.707777
},
{
"Type": "Node",
"Name": "Kelly (Edward) Park",
"Street": "2725 W. 41st St.",
"City": "Chicago",
"county": "Cook County",
"state": "Illinois",
"state_code": "IL",
"postcode": "",
"lat": 41.8195649,
"lon": -87.6624166
},
{
"Type": "Node",
"Name": "Kelly (John) Park",
"Street": "3800 N. Seminary Ave.",
"City": "Chicago",
"county": "Cook County",
"state": "Illinois",
"state_code": "IL",
"postcode": "",
"lat": 41.917144,
"lon": -87.655393
},
{
"Type": "Node",
"Name": "Kelvyn Park",
"Street": "4438 W. Wrightwood Ave.",
"City": "Chicago",
"county": "Cook County",
"state": "Illinois",
"state_code": "IL",
"postcode": 60639,
"lat": 41.9294106,
"lon": -87.7379574103949
},
{
"Type": "Node",
"Name": "Kenmore Park",
"Street": "3141 N. Kenmore Ave.",
"City": "Chicago",
"county": "Cook County",
"state": "Illinois",
"state_code": "IL",
"postcode": 60657,
"lat": 41.9393134,
"lon": -87.6553028
},
{
"Type": "Node",
"Name": "Kennedy Park",
"Street": "11320 S. Western Ave.",
"City": "Chicago",
"county": "Cook County",
"state": "Illinois",
"state_code": "IL",
"postcode": "",
"lat": 41.68722635,
"lon": -87.683481641925
},
{
"Type": "Node",
"Name": "Kennicott Park",
"Street": "4434 S. Lake Park Ave.",
"City": "Chicago",
"county": "Cook County",
"state": "Illinois",
"state_code": "IL",
"postcode": 60653,
"lat": 41.81407475,
"lon": -87.5975613724836
},
{
"Type": "Node",
"Name": "Kensington Park",
"Street": "345 E. 118th St.",
"City": "Chicago",
"county": "Cook County",
"state": "Illinois",
"state_code": "IL",
"postcode": "",
"lat": 41.87897,
"lon": -87.66063
},
{
"Type": "Node",
"Name": "Ken-Well Park",
"Street": "2945 N. Kenosha Ave.",
"City": "Chicago",
"county": "Cook County",
"state": "Illinois",
"state_code": "IL",
"postcode": 60641,
"lat": 41.93485785,
"lon": -87.7335412934373
},
{
"Type": "Node",
"Name": "Kenwood Community Park",
"Street": "1330 E. 50th St.",
"City": "Chicago",
"county": "Cook County",
"state": "Illinois",
"state_code": "IL",
"postcode": 60615,
"lat": 41.80490095,
"lon": -87.5942725973895
},
{
"Type": "Node",
"Name": "Keystone Park",
"Street": "1653 N. Keystone Ave.",
"City": "Chicago",
"county": "Cook County",
"state": "Illinois",
"state_code": "IL",
"postcode": 60639,
"lat": 41.9114897,
"lon": -87.7275979
},
{
"Type": "Node",
"Name": "Kilbourn Park",
"Street": "3501 N. Kilbourn Ave.",
"City": "Chicago",
"county": "Cook County",
"state": "Illinois",
"state_code": "IL",
"postcode": 60641,
"lat": 41.94505385,
"lon": -87.739044020067
},
{
"Type": "Node",
"Name": "King Park",
"Street": "1200 W. 77th St.",
"City": "Chicago",
"county": "Cook County",
"state": "Illinois",
"state_code": "IL",
"postcode": 60620,
"lat": 41.75549565,
"lon": -87.6551297476158
},
{
"Type": "Node",
"Name": "King-Lockhart Park",
"Street": "10609 S. Western Ave",
"City": "Chicago",
"county": "Cook County",
"state": "Illinois",
"state_code": "IL",
"postcode": 60643,
"lat": 41.700671,
"lon": -87.681033
},
{
"Type": "Node",
"Name": "Kinzie Parkway Park",
"Street": "5200 W. Kinzie Parkway",
"City": "Chicago",
"county": "Cook County",
"state": "Illinois",
"state_code": "IL",
"postcode": 60644,
"lat": 41.8878377,
"lon": -87.7590968952875
},
{
"Type": "Node",
"Name": "Kiwanis Park",
"Street": "3315 W. Carmen Ave.",
"City": "Chicago",
"county": "Cook County",
"state": "Illinois",
"state_code": "IL",
"postcode": "",
"lat": 41.97225,
"lon": -87.71145
},
{
"Type": "Node",
"Name": "Klein Park",
"Street": "3538 N. Lincoln Ave.",
"City": "Chicago",
"county": "Cook County",
"state": "Illinois",
"state_code": "IL",
"postcode": 60610,
"lat": 41.9203432,
"lon": -87.6314966
},
{
"Type": "Node",
"Name": "Kolmar Park",
"Street": "4143 N. Kolmar Ave.",
"City": "Chicago",
"county": "Cook County",
"state": "Illinois",
"state_code": "IL",
"postcode": 60641,
"lat": 41.9567,
"lon": -87.74117
},
{
"Type": "Node",
"Name": "Korczak Park",
"Street": "6156 N. Claremont Ave.",
"City": "Chicago",
"county": "Cook County",
"state": "Illinois",
"state_code": "IL",
"postcode": 60659,
"lat": 41.99393485,
"lon": -87.6888948
},
{
"Type": "Node",
"Name": "Kosciuszko Park",
"Street": "2732 N. Avers Ave.",
"City": "Chicago",
"county": "Cook County",
"state": "Illinois",
"state_code": "IL",
"postcode": 60647,
"lat": 41.9306978,
"lon": -87.7244952457793
},
{
"Type": "Node",
"Name": "Krause  Park",
"Street": "10556 S. Avenue L",
"City": "Chicago",
"county": "Cook County",
"state": "Illinois",
"state_code": "IL",
"postcode": 60617,
"lat": 41.70290225,
"lon": -87.5368379
},
{
"Type": "Node",
"Name": "Kucinski-Murphy Park",
"Street": "1635 W. 33rd Place",
"City": "Chicago",
"county": "Cook County",
"state": "Illinois",
"state_code": "IL",
"postcode": 60608,
"lat": 41.83298495,
"lon": -87.666639348844
},
{
"Type": "Node",
"Name": "Kujawa Park",
"Street": "4330 S. Kedvale Ave.",
"City": "Chicago",
"county": "Cook County",
"state": "Illinois",
"state_code": "IL",
"postcode": 60632,
"lat": 41.81426575,
"lon": -87.7279521142377
},
{
"Type": "Node",
"Name": "La Follette Park",
"Street": "1333 N. Laramie Ave.",
"City": "Chicago",
"county": "Cook County",
"state": "Illinois",
"state_code": "IL",
"postcode": 60651,
"lat": 41.904978,
"lon": -87.755105
},
{
"Type": "Node",
"Name": "La Villita Park",
"Street": "2800 S. Sacramento Blvd.",
"City": "Chicago",
"county": "Cook County",
"state": "Illinois",
"state_code": "IL",
"postcode": 60623,
"lat": 41.8400186,
"lon": -87.7015849802077
},
{
"Type": "Node",
"Name": "Lake Meadows Park",
"Street": "3117 S. Rhodes Ave.",
"City": "Chicago",
"county": "Cook County",
"state": "Illinois",
"state_code": "IL",
"postcode": 60616,
"lat": 41.8376901,
"lon": -87.6134719
},
{
"Type": "Node",
"Name": "Lake Shore Park",
"Street": "808 N. Lake Shore Dr.",
"City": "Chicago",
"county": "Cook County",
"state": "Illinois",
"state_code": "IL",
"postcode": 60611,
"lat": 41.89725225,
"lon": -87.619620656523
},
{
"Type": "Node",
"Name": "Lakeshore East Park",
"Street": "450 E. Benton Place",
"City": "Chicago",
"county": "Cook County",
"state": "Illinois",
"state_code": "IL",
"postcode": 60601,
"lat": 41.88602175,
"lon": -87.6177042046939
},
{
"Type": "Node",
"Name": "Lamb (Harold) Park",
"Street": "1400 W. 109th St.",
"City": "Chicago",
"county": "Cook County",
"state": "Illinois",
"state_code": "IL",
"postcode": 60628,
"lat": 41.695978,
"lon": -87.626066
},
{
"Type": "Node",
"Name": "Lane (George) Beach Park",
"Street": "5915 N. Sheridan Rd.",
"City": "Chicago",
"county": "Cook County",
"state": "Illinois",
"state_code": "IL",
"postcode": 60660,
"lat": 41.98983645,
"lon": -87.6548346400773
},
{
"Type": "Node",
"Name": "Langdon (Mary Margaret) Park",
"Street": "1754 W. Albion Ave.",
"City": "Chicago",
"county": "Cook County",
"state": "Illinois",
"state_code": "IL",
"postcode": 60626,
"lat": 42.001151,
"lon": -87.671309
},
{
"Type": "Node",
"Name": "Langley Park",
"Street": "11255 S. Langley Ave.",
"City": "Chicago",
"county": "Cook County",
"state": "Illinois",
"state_code": "IL",
"postcode": 60653,
"lat": 41.826436,
"lon": -87.610595
},
{
"Type": "Node",
"Name": "Lawler (Michael) Park",
"Street": "5210 W. 64th St.",
"City": "Chicago",
"county": "Cook County",
"state": "Illinois",
"state_code": "IL",
"postcode": 60636,
"lat": 41.7777878,
"lon": -87.6544454
},
{
"Type": "Node",
"Name": "Lazarus (Emma) Park",
"Street": "1257 W. Columbia Ave.",
"City": "Chicago",
"county": "Cook County",
"state": "Illinois",
"state_code": "IL",
"postcode": 60626,
"lat": 42.0042206,
"lon": -87.6632004990649
},
{
"Type": "Node",
"Name": "LeClaire-Hearst Park",
"Street": "5120 W. 44th St.",
"City": "Chicago",
"county": "Cook County",
"state": "Illinois",
"state_code": "IL",
"postcode": 60638,
"lat": 41.81333735,
"lon": -87.7513431199511
},
{
"Type": "Node",
"Name": "Lee (John) Park",
"Street": "3700 W. 87th St.",
"City": "Chicago",
"county": "Cook County",
"state": "Illinois",
"state_code": "IL",
"postcode": 60652,
"lat": 41.73526705,
"lon": -87.714466000718
},
{
"Type": "Node",
"Name": "Legion Park",
"Street": "3100 W. Bryn Mawr Ave.",
"City": "Chicago",
"county": "Cook County",
"state": "Illinois",
"state_code": "IL",
"postcode": 60659,
"lat": 41.9830917,
"lon": -87.7069557229357
},
{
"Type": "Node",
"Name": "Leland Giants Park",
"Street": "664 W. 76th St.",
"City": "Chicago",
"county": "Cook County",
"state": "Illinois",
"state_code": "IL",
"postcode": 60620,
"lat": 41.7567621,
"lon": -87.6408448122322
},
{
"Type": "Node",
"Name": "Leone (Sam) Beach Park",
"Street": "1222 W. Touhy Ave.",
"City": "Chicago",
"county": "Cook County",
"state": "Illinois",
"state_code": "IL",
"postcode": 60626,
"lat": 42.01321345,
"lon": -87.6624836559916
},
{
"Type": "Node",
"Name": "Lerner (Leo) Park",
"Street": "7000 N. Sacramento Ave.",
"City": "Chicago",
"county": "Cook County",
"state": "Illinois",
"state_code": "IL",
"postcode": 60645,
"lat": 42.00745685,
"lon": -87.7057414006189
},
{
"Type": "Node",
"Name": "Levin (John) Park",
"Street": "5458 W. Kinzie Pkwy.",
"City": "Chicago",
"county": "Cook County",
"state": "Illinois",
"state_code": "IL",
"postcode": 60644,
"lat": 41.88834155,
"lon": -87.7618575458338
},
{
"Type": "Node",
"Name": "Lily Gardens Park",
"Street": "632 W. 71st. St.",
"City": "Chicago",
"county": "Cook County",
"state": "Illinois",
"state_code": "IL",
"postcode": "",
"lat": 41.764481,
"lon": -87.639811
},
{
"Type": "Node",
"Name": "Limas (Juliann Hope) Park",
"Street": "2410 S. Trumbull Ave.",
"City": "Chicago",
"county": "Cook County",
"state": "Illinois",
"state_code": "IL",
"postcode": 60623,
"lat": 41.84754,
"lon": -87.711575
},
{
"Type": "Node",
"Name": "Lin (Margeret Hie Ding) Park",
"Street": "1735 S. State St.",
"City": "Chicago",
"county": "Cook County",
"state": "Illinois",
"state_code": "IL",
"postcode": 60616,
"lat": 41.85808155,
"lon": -87.6268025308033
},
{
"Type": "Node",
"Name": "Lincoln Park",
"Street": "500-5700 N. Lake Shore Drive",
"City": "Chicago",
"county": "Cook County",
"state": "Illinois",
"state_code": "IL",
"postcode": 60614,
"lat": 41.9324916,
"lon": -87.6391945
},
{
"Type": "Node",
"Name": "Lindblom Park",
"Street": "6054 S. Damen Ave.",
"City": "Chicago",
"county": "Cook County",
"state": "Illinois",
"state_code": "IL",
"postcode": 60636,
"lat": 41.78502565,
"lon": -87.6750437030951
},
{
"Type": "Node",
"Name": "Linden Park",
"Street": "1129-47 N. Pulaski Rd.",
"City": "Chicago",
"county": "Cook County",
"state": "Illinois",
"state_code": "IL",
"postcode": 60651,
"lat": 41.8916128,
"lon": -87.7259752
},
{
"Type": "Node",
"Name": "Little Venice Park",
"Street": "2251 W. 50th Pl.",
"City": "Chicago",
"county": "Cook County",
"state": "Illinois",
"state_code": "IL",
"postcode": 60609,
"lat": 41.8017893,
"lon": -87.6814751639223
},
{
"Type": "Node",
"Name": "Livingston Field Park",
"Street": "2139 W. Lexington St.",
"City": "Chicago",
"county": "",
"state": "Illinois",
"state_code": "IL",
"postcode": "",
"lat": 41.87168555,
"lon": -87.6811526912006
},
{
"Type": "Node",
"Name": "Logan Boulevard Skate Park",
"Street": "N. Western Ave and Logan Blvd.",
"City": "Chicago",
"county": "Cook County",
"state": "Illinois",
"state_code": "IL",
"postcode": "",
"lat": 41.87897,
"lon": -87.66063
},
{
"Type": "Node",
"Name": "London (Louis) Park",
"Street": "1654 S. Trumbull Ave.",
"City": "Chicago",
"county": "Cook County",
"state": "Illinois",
"state_code": "IL",
"postcode": 60623,
"lat": 41.8574384,
"lon": -87.7115062
},
{
"Type": "Node",
"Name": "Lorraine Hansberry Park",
"Street": "5635 S. Indiana Ave.",
"City": "Chicago",
"county": "Cook County",
"state": "Illinois",
"state_code": "IL",
"postcode": 60637,
"lat": 41.79192165,
"lon": -87.6203205236722
},
{
"Type": "Node",
"Name": "Lowe Playground Park",
"Street": "5203 S. Lowe Ave.",
"City": "Chicago",
"county": "Cook County",
"state": "Illinois",
"state_code": "IL",
"postcode": 60609,
"lat": 41.7992503,
"lon": -87.6416347
},
{
"Type": "Node",
"Name": "Loyola Park",
"Street": "1230 W. Greenleaf Ave.",
"City": "Chicago",
"county": "Cook County",
"state": "Illinois",
"state_code": "IL",
"postcode": 60626,
"lat": 42.0095748,
"lon": -87.6592101620392
},
{
"Type": "Node",
"Name": "Luella Park",
"Street": "10021 S. Luella Ave.",
"City": "Chicago",
"county": "Cook County",
"state": "Illinois",
"state_code": "IL",
"postcode": 60617,
"lat": 41.712737,
"lon": -87.5675959
},
{
"Type": "Node",
"Name": "Luna Park",
"Street": "5558 S. Green St.",
"City": "Chicago",
"county": "Cook County",
"state": "Illinois",
"state_code": "IL",
"postcode": 60621,
"lat": 41.79263535,
"lon": -87.6466758505586
},
{
"Type": "Node",
"Name": "Lunt Park",
"Street": "2239 W. Lunt Ave.",
"City": "Chicago",
"county": "Cook County",
"state": "Illinois",
"state_code": "IL",
"postcode": 60645,
"lat": 42.00839965,
"lon": -87.6875248617827
},
{
"Type": "Node",
"Name": "Lyle (John) Park",
"Street": "7700 S. Wallace St.",
"City": "Chicago",
"county": "Cook County",
"state": "Illinois",
"state_code": "IL",
"postcode": "",
"lat": 41.848518,
"lon": -87.641912
},
{
"Type": "Node",
"Name": "Madero Park",
"Street": "3203 W. 28th St.",
"City": "Chicago",
"county": "Cook County",
"state": "Illinois",
"state_code": "IL",
"postcode": 60623,
"lat": 41.8408752,
"lon": -87.7050908
},
{
"Type": "Node",
"Name": "Madigan (Michael J. Sr.) Park",
"Street": "4707 W. Marquette Rd.",
"City": "Chicago",
"county": "Cook County",
"state": "Illinois",
"state_code": "IL",
"postcode": 60629,
"lat": 41.7707,
"lon": -87.739421
},
{
"Type": "Node",
"Name": "Maggie Daley Park",
"Street": "337 E. Randolph",
"City": "Chicago",
"county": "Cook County",
"state": "Illinois",
"state_code": "IL",
"postcode": 60601,
"lat": 41.88272575,
"lon": -87.6187298392352
},
{
"Type": "Node",
"Name": "Magnolia Park",
"Street": "3224 W. Flournoy St.",
"City": "Chicago",
"county": "Cook County",
"state": "Illinois",
"state_code": "IL",
"postcode": 60624,
"lat": 41.87303815,
"lon": -87.7070586906116
},
{
"Type": "Node",
"Name": "Malus Park",
"Street": "5426 S. Shields Ave.",
"City": "Chicago",
"county": "Cook County",
"state": "Illinois",
"state_code": "IL",
"postcode": 60609,
"lat": 41.7954333,
"lon": -87.6345619203495
},
{
"Type": "Node",
"Name": "Mamie-Till Park",
"Street": "6404 S. Ellis Ave.",
"City": "Chicago",
"county": "Cook County",
"state": "Illinois",
"state_code": "IL",
"postcode": 60637,
"lat": 41.7784105,
"lon": -87.6004073
},
{
"Type": "Node",
"Name": "Mandrake (Henry Brown) Park",
"Street": "3858 S. Cottage Grove",
"City": "Chicago",
"county": "Cook County",
"state": "Illinois",
"state_code": "IL",
"postcode": 60653,
"lat": 41.8243,
"lon": -87.607583
},
{
"Type": "Node",
"Name": "Mann (James) Park",
"Street": "3035 E. 130th St.",
"City": "Chicago",
"county": "Cook County",
"state": "Illinois",
"state_code": "IL",
"postcode": 60633,
"lat": 41.657346,
"lon": -87.550769
},
{
"Type": "Node",
"Name": "Maple Park",
"Street": "2047 N. Spaulding Ave",
"City": "Chicago",
"county": "Cook County",
"state": "Illinois",
"state_code": "IL",
"postcode": "",
"lat": 41.8997355,
"lon": -87.7093481
},
{
"Type": "Node",
"Name": "Maplewood Park",
"Street": "1640 N. Maplewood Ave.",
"City": "Chicago",
"county": "Cook County",
"state": "Illinois",
"state_code": "IL",
"postcode": 60647,
"lat": 41.91147065,
"lon": -87.6912750894182
},
{
"Type": "Node",
"Name": "Margate Park",
"Street": "4921 N. Marine Dr.",
"City": "Chicago",
"county": "Cook County",
"state": "Illinois",
"state_code": "IL",
"postcode": 60640,
"lat": 41.972321,
"lon": -87.649997254563
},
{
"Type": "Node",
"Name": "Mariano (Louis) Park",
"Street": "1031 N. State St.",
"City": "Chicago",
"county": "Cook County",
"state": "Illinois",
"state_code": "IL",
"postcode": 60610,
"lat": 41.9012167,
"lon": -87.6283551
},
{
"Type": "Node",
"Name": "Marquette Park",
"Street": "6743 S. Kedzie Ave.",
"City": "Chicago",
"county": "Cook County",
"state": "Illinois",
"state_code": "IL",
"postcode": 60629,
"lat": 41.7756684,
"lon": -87.6935267
},
{
"Type": "Node",
"Name": "Marshfield Park",
"Street": "1637 W. 87th St.",
"City": "Chicago",
"county": "Cook County",
"state": "Illinois",
"state_code": "IL",
"postcode": 60620,
"lat": 41.73545915,
"lon": -87.6648831735206
},
{
"Type": "Node",
"Name": "Martin (Johnny) Park",
"Street": "922 W. Fletcher St.",
"City": "Chicago",
"county": "Cook County",
"state": "Illinois",
"state_code": "IL",
"postcode": "",
"lat": 41.939216,
"lon": -87.652632
},
{
"Type": "Node",
"Name": "Mason (Elizabeth) Park",
"Street": "4100 W. West End Ave.",
"City": "Chicago",
"county": "Cook County",
"state": "Illinois",
"state_code": "IL",
"postcode": 60624,
"lat": 41.883522,
"lon": -87.728562
},
{
"Type": "Node",
"Name": "Matanky Park",
"Street": "6925 N. Ridge Ave.",
"City": "Chicago",
"county": "Cook County",
"state": "Illinois",
"state_code": "IL",
"postcode": 60626,
"lat": 42.0074461,
"lon": -87.6807723539502
},
{
"Type": "Node",
"Name": "Mather (Stephen Tyng) Park",
"Street": "5941 N. Richmond St.",
"City": "Chicago",
"county": "Cook County",
"state": "Illinois",
"state_code": "IL",
"postcode": 60659,
"lat": 41.9896797,
"lon": -87.7022718310992
},
{
"Type": "Node",
"Name": "Mayfair Park",
"Street": "4550 W. Sunnyside Ave.",
"City": "Chicago",
"county": "Cook County",
"state": "Illinois",
"state_code": "IL",
"postcode": 60630,
"lat": 41.96312965,
"lon": -87.7419889286435
},
{
"Type": "Node",
"Name": "McGuane Park",
"Street": "2901 S. Poplar Ave.",
"City": "Chicago",
"county": "Cook County",
"state": "Illinois",
"state_code": "IL",
"postcode": 60608,
"lat": 41.8408316,
"lon": -87.6477924668778
},
{
"Type": "Node",
"Name": "McInerney (Thomas) Park",
"Street": "4446 S. Emerald Ave.",
"City": "Chicago",
"county": "Cook County",
"state": "Illinois",
"state_code": "IL",
"postcode": 60609,
"lat": 41.8129485,
"lon": -87.6450151335125
},
{
"Type": "Node",
"Name": "McKeon (Joseph) Park",
"Street": "3548 S. Wallace St.",
"City": "Chicago",
"county": "Cook County",
"state": "Illinois",
"state_code": "IL",
"postcode": 60609,
"lat": 41.8292701,
"lon": -87.6415489509357
},
{
"Type": "Node",
"Name": "McKiernan (David) Park",
"Street": "10714 S. Sawyer Ave.",
"City": "Chicago",
"county": "Cook County",
"state": "Illinois",
"state_code": "IL",
"postcode": 60655,
"lat": 41.698353,
"lon": -87.702477
},
{
"Type": "Node",
"Name": "McKinley (William) Park",
"Street": "2210 W. Pershing Rd.",
"City": "Chicago",
"county": "Cook County",
"state": "Illinois",
"state_code": "IL",
"postcode": 60609,
"lat": 41.82374735,
"lon": -87.6824576507787
},
{
"Type": "Node",
"Name": "Mellin (Curtis, Sr.) Park",
"Street": "5553 N. Ashland Ave.",
"City": "Chicago",
"county": "Cook County",
"state": "Illinois",
"state_code": "IL",
"postcode": 60640,
"lat": 41.98316705,
"lon": -87.6694681662276
},
{
"Type": "Node",
"Name": "Memorial Park",
"Street": "149 W. 73rd St.",
"City": "Chicago",
"county": "Cook County",
"state": "Illinois",
"state_code": "IL",
"postcode": "",
"lat": 41.76984795,
"lon": -87.6399076827622
},
{
"Type": "Node",
"Name": "Merrill (George) Park",
"Street": "2154 E. 97th St.",
"City": "Chicago",
"county": "Cook County",
"state": "Illinois",
"state_code": "IL",
"postcode": "",
"lat": 41.71886,
"lon": -87.5718962
},
{
"Type": "Node",
"Name": "Merrimac Park",
"Street": "6343 W. Irving Park Rd.",
"City": "Chicago",
"county": "Cook County",
"state": "Illinois",
"state_code": "IL",
"postcode": 60634,
"lat": 41.9519988,
"lon": -87.7852608364916
},
{
"Type": "Node",
"Name": "Merryman (Theron) Park",
"Street": "3736 N. Marshfield Ave.",
"City": "Chicago",
"county": "Cook County",
"state": "Illinois",
"state_code": "IL",
"postcode": "",
"lat": 41.889416,
"lon": -87.668029
},
{
"Type": "Node",
"Name": "Metcalfe (Ralph) Park",
"Street": "4134 S. State St.",
"City": "Chicago",
"county": "Cook County",
"state": "Illinois",
"state_code": "IL",
"postcode": 60609,
"lat": 41.81784755,
"lon": -87.6270428536677
},
{
"Type": "Node",
"Name": "Meyering (William) Park",
"Street": "7140 S. Martin Luther King Dr.",
"City": "Chicago",
"county": "Cook County",
"state": "Illinois",
"state_code": "IL",
"postcode": 60619,
"lat": 41.764509,
"lon": -87.616038
},
{
"Type": "Node",
"Name": "Miami Park",
"Street": "2754 S. Trumbull Ave.",
"City": "Chicago",
"county": "Cook County",
"state": "Illinois",
"state_code": "IL",
"postcode": 60623,
"lat": 41.84094,
"lon": -87.711389
},
{
"Type": "Node",
"Name": "Micek (Frank) Park",
"Street": "5311 S. Hamilton Ave.",
"City": "Chicago",
"county": "Cook County",
"state": "Illinois",
"state_code": "IL",
"postcode": "",
"lat": 41.8670486,
"lon": -87.6802874
},
{
"Type": "Node",
"Name": "Mid-North Park",
"Street": "401 W. Belden Ave.",
"City": "Chicago",
"county": "Cook County",
"state": "Illinois",
"state_code": "IL",
"postcode": 60614,
"lat": 41.9235974,
"lon": -87.6390348136519
},
{
"Type": "Node",
"Name": "Midway Plaisance Park",
"Street": "1130 Midway Plaisance North",
"City": "Chicago",
"county": "Cook County",
"state": "Illinois",
"state_code": "IL",
"postcode": 60637,
"lat": 41.7870253,
"lon": -87.5988523390196
},
{
"Type": "Node",
"Name": "Millard (Alden) Park",
"Street": "1331 S. Millard Ave.",
"City": "Chicago",
"county": "Cook County",
"state": "Illinois",
"state_code": "IL",
"postcode": 60623,
"lat": 41.86356,
"lon": -87.716211
},
{
"Type": "Node",
"Name": "Miller (Samuel) Park",
"Street": "846 S. Miller St.",
"City": "Chicago",
"county": "Cook County",
"state": "Illinois",
"state_code": "IL",
"postcode": 60607,
"lat": 41.8704715,
"lon": -87.65254245
},
{
"Type": "Node",
"Name": "Minuteman Park",
"Street": "5940 S. Central Ave.",
"City": "Chicago",
"county": "Cook County",
"state": "Illinois",
"state_code": "IL",
"postcode": 60623,
"lat": 41.8774107,
"lon": -87.735355
},
{
"Type": "Node",
"Name": "Moccasin Ranch Park",
"Street": "6446 S. Kimbark Ave.",
"City": "Chicago",
"county": "Cook County",
"state": "Illinois",
"state_code": "IL",
"postcode": 60637,
"lat": 41.7773326,
"lon": -87.5950294268498
},
{
"Type": "Node",
"Name": "Montgomery (Mabel) Park",
"Street": "6600 S. Trumbull Ave.",
"City": "Chicago",
"county": "Cook County",
"state": "Illinois",
"state_code": "IL",
"postcode": 60623,
"lat": 41.844438,
"lon": -87.7111233
},
{
"Type": "Node",
"Name": "Monticello Park",
"Street": "1810 N. Monticello Ave.",
"City": "Chicago",
"county": "Cook County",
"state": "Illinois",
"state_code": "IL",
"postcode": 60651,
"lat": 41.8952699,
"lon": -87.7174632
},
{
"Type": "Node",
"Name": "Monument Park",
"Street": "6679 N. Avondale Ave.",
"City": "Chicago",
"county": "Cook County",
"state": "Illinois",
"state_code": "IL",
"postcode": 60616,
"lat": 41.83142,
"lon": -87.60838
},
{
"Type": "Node",
"Name": "Moore (Maurice) Park",
"Street": "5085 W. Adams",
"City": "Chicago",
"county": "Cook County",
"state": "Illinois",
"state_code": "IL",
"postcode": 60644,
"lat": 41.87805,
"lon": -87.752741
},
{
"Type": "Node",
"Name": "Moran (Terrance) Park",
"Street": "5727 S. Racine Ave.",
"City": "Chicago",
"county": "Cook County",
"state": "Illinois",
"state_code": "IL",
"postcode": 60636,
"lat": 41.7896186,
"lon": -87.6545693992791
},
{
"Type": "Node",
"Name": "Morgan (Thomas Leeds) Field Park",
"Street": "11710 S. Morgan St.",
"City": "Chicago",
"county": "Cook County",
"state": "Illinois",
"state_code": "IL",
"postcode": 60643,
"lat": 41.68091,
"lon": -87.647439
},
{
"Type": "Node",
"Name": "Morgan Park Sports Center Park (Park No. 577)",
"Street": "11505 S. Western Ave.",
"City": "Chicago",
"county": "Cook County",
"state": "Illinois",
"state_code": "IL",
"postcode": 60643,
"lat": 41.68385495,
"lon": -87.6803977078015
},
{
"Type": "Node",
"Name": "Mount Greenwood Park",
"Street": "3721 W. 111th St.",
"City": "Chicago",
"county": "Cook County",
"state": "Illinois",
"state_code": "IL",
"postcode": 60655,
"lat": 41.69003,
"lon": -87.71311
},
{
"Type": "Node",
"Name": "Mozart Park",
"Street": "2036 N. Avers Ave.",
"City": "Chicago",
"county": "Cook County",
"state": "Illinois",
"state_code": "IL",
"postcode": 60647,
"lat": 41.9179874,
"lon": -87.7237817069344
},
{
"Type": "Node",
"Name": "Mulberry Park",
"Street": "3150 S. Robinson St.",
"City": "Chicago",
"county": "Cook County",
"state": "Illinois",
"state_code": "IL",
"postcode": 60608,
"lat": 41.83630035,
"lon": -87.6665498984292
},
{
"Type": "Node",
"Name": "Mulberry Point Park",
"Street": "5865 N. Nina Ave.",
"City": "Chicago",
"county": "Cook County",
"state": "Illinois",
"state_code": "IL",
"postcode": 60631,
"lat": 41.9881993,
"lon": -87.8026018680876
},
{
"Type": "Node",
"Name": "Munroe (Roy) Park",
"Street": "2617 W. 105th St.",
"City": "Chicago",
"county": "Cook County",
"state": "Illinois",
"state_code": "IL",
"postcode": 60655,
"lat": 41.70255,
"lon": -87.687026
},
{
"Type": "Node",
"Name": "Murray (David) Park",
"Street": "1743 W. 73rd St.",
"City": "Chicago",
"county": "Cook County",
"state": "Illinois",
"state_code": "IL",
"postcode": 60636,
"lat": 41.7611465828723,
"lon": -87.6676427127753
},
{
"Type": "Node",
"Name": "Myrtle Grove Park",
"Street": "6101 N. Neva Ave.",
"City": "Chicago",
"county": "Cook County",
"state": "Illinois",
"state_code": "IL",
"postcode": "",
"lat": 41.992782,
"lon": -87.805194
},
{
"Type": "Node",
"Name": "Nash (Don) Community Center Park",
"Street": "1833 E 71st St.",
"City": "Chicago",
"county": "Cook County",
"state": "Illinois",
"state_code": "IL",
"postcode": 60649,
"lat": 41.765851,
"lon": -87.579943
},
{
"Type": "Node",
"Name": "Neighbors' Garden Park",
"Street": "2533 N. Sacramento Ave.",
"City": "Chicago",
"county": "Cook County",
"state": "Illinois",
"state_code": "IL",
"postcode": 60647,
"lat": 41.9276461,
"lon": -87.7020495
},
{
"Type": "Node",
"Name": "Nelson (Andrew) Park",
"Street": "2951 W. Nelson St.",
"City": "Chicago",
"county": "Cook County",
"state": "Illinois",
"state_code": "IL",
"postcode": "",
"lat": 41.937195,
"lon": -87.653136
},
{
"Type": "Node",
"Name": "Nichols (John Fountain) Park",
"Street": "1355 E. 53rd St.",
"City": "Chicago",
"county": "Cook County",
"state": "Illinois",
"state_code": "IL",
"postcode": 60615,
"lat": 41.798116,
"lon": -87.593862
},
{
"Type": "Node",
"Name": "Ninebark Park",
"Street": "1447 S. Harding Ave.",
"City": "Chicago",
"county": "Cook County",
"state": "Illinois",
"state_code": "IL",
"postcode": 60623,
"lat": 41.8610688,
"lon": -87.7235797616548
},
{
"Type": "Node",
"Name": "Noethling (Grace) Park",
"Street": "2645 N. Sheffield Ave.",
"City": "Chicago",
"county": "Cook County",
"state": "Illinois",
"state_code": "IL",
"postcode": 60614,
"lat": 41.930565,
"lon": -87.653445
},
{
"Type": "Node",
"Name": "Normandy Park",
"Street": "6660 W. 52nd St.",
"City": "Chicago",
"county": "Cook County",
"state": "Illinois",
"state_code": "IL",
"postcode": 60632,
"lat": 41.7990488,
"lon": -87.7034016
},
{
"Type": "Node",
"Name": "Nat King Cole Park",
"Street": "361 E. 85th St.",
"City": "Chicago",
"county": "Cook County",
"state": "Illinois",
"state_code": "IL",
"postcode": "",
"lat": 41.7401439,
"lon": -87.6154437
},
{
"Type": "Node",
"Name": "North Boundary Park",
"Street": "7211 N. Kedzie Ave.",
"City": "Chicago",
"county": "Cook County",
"state": "Illinois",
"state_code": "IL",
"postcode": "",
"lat": 41.833937,
"lon": -87.690171
},
{
"Type": "Node",
"Name": "North Mayfair Park",
"Street": "4533 W. Carmen Ave.",
"City": "Chicago",
"county": "Cook County",
"state": "Illinois",
"state_code": "IL",
"postcode": 60630,
"lat": 41.9732305,
"lon": -87.742112646954
},
{
"Type": "Node",
"Name": "North Park Village Nature Center Park",
"Street": "5801 N. Pulaski Rd.",
"City": "Chicago",
"county": "Cook County",
"state": "Illinois",
"state_code": "IL",
"postcode": 60646,
"lat": 41.98888865,
"lon": -87.7252206811754
},
{
"Type": "Node",
"Name": "North Shore Beach Park",
"Street": "1040 W. North Shore Ave.",
"City": "Chicago",
"county": "Cook County",
"state": "Illinois",
"state_code": "IL",
"postcode": 60626,
"lat": 42.0039935,
"lon": -87.6571665236217
},
{
"Type": "Node",
"Name": "Northerly Island Park",
"Street": "1521 S. Linn White Dr.",
"City": "Chicago",
"county": "Cook County",
"state": "Illinois",
"state_code": "IL",
"postcode": "",
"lat": 41.86031,
"lon": -87.60977
},
{
"Type": "Node",
"Name": "Norwood Circle Park",
"Street": "7117 W. Peterson Ave.",
"City": "Chicago",
"county": "Cook County",
"state": "Illinois",
"state_code": "IL",
"postcode": 60631,
"lat": 41.9891053,
"lon": -87.8053230898392
},
{
"Type": "Node",
"Name": "Norwood Park",
"Street": "5801 N. Natoma Ave.",
"City": "Chicago",
"county": "Cook County",
"state": "Illinois",
"state_code": "IL",
"postcode": 60631,
"lat": 41.9872452,
"lon": -87.793098311508
},
{
"Type": "Node",
"Name": "Nottingham Park",
"Street": "7101 W. 63rd St.",
"City": "Chicago",
"county": "Cook County",
"state": "Illinois",
"state_code": "IL",
"postcode": 60621,
"lat": 41.7808889,
"lon": -87.6310219
},
{
"Type": "Node",
"Name": "O'Hallaren (Bernard) Park",
"Street": "8335 S. Honore St.",
"City": "Chicago",
"county": "Cook County",
"state": "Illinois",
"state_code": "IL",
"postcode": 60609,
"lat": 41.8267808,
"lon": -87.6715176
},
{
"Type": "Node",
"Name": "Oakdale Park",
"Street": "965 W. 95th St.",
"City": "Chicago",
"county": "Cook County",
"state": "Illinois",
"state_code": "IL",
"postcode": 60643,
"lat": 41.7205783,
"lon": -87.6475492007073
},
{
"Type": "Node",
"Name": "Oakley Park",
"Street": "6441 S. Oakley Ave.",
"City": "Chicago",
"county": "Cook County",
"state": "Illinois",
"state_code": "IL",
"postcode": 60636,
"lat": 41.776165,
"lon": -87.680648
},
{
"Type": "Node",
"Name": "Ogden (William) Park",
"Street": "6500 S. Racine Ave.",
"City": "Chicago",
"county": "Cook County",
"state": "Illinois",
"state_code": "IL",
"postcode": 60636,
"lat": 41.77504785,
"lon": -87.6552656253274
},
{
"Type": "Node",
"Name": "Ogden (William) Plaza Park",
"Street": "429 N. Columbus Dr.",
"City": "Chicago",
"county": "Cook County",
"state": "Illinois",
"state_code": "IL",
"postcode": 60611,
"lat": 41.890093,
"lon": -87.620009
},
{
"Type": "Node",
"Name": "Ohio & Harding Park",
"Street": "601 N. Harding Ave.",
"City": "Chicago",
"county": "Cook County",
"state": "Illinois",
"state_code": "IL",
"postcode": 60624,
"lat": 41.892026,
"lon": -87.724417
},
{
"Type": "Node",
"Name": "Ohio Park",
"Street": "4712 W. Ohio St.",
"City": "Chicago",
"county": "Cook County",
"state": "Illinois",
"state_code": "IL",
"postcode": 60654,
"lat": 41.89232805,
"lon": -87.638210683259
},
{
"Type": "Node",
"Name": "Olympia Park",
"Street": "6566 N. Avondale Ave.",
"City": "Chicago",
"county": "Cook County",
"state": "Illinois",
"state_code": "IL",
"postcode": 60631,
"lat": 41.99858075,
"lon": -87.8160187113463
},
{
"Type": "Node",
"Name": "Oriole Park",
"Street": "5430 N. Olcott Ave.",
"City": "Chicago",
"county": "Cook County",
"state": "Illinois",
"state_code": "IL",
"postcode": 60656,
"lat": 41.97857205,
"lon": -87.81481307486
},
{
"Type": "Node",
"Name": "Orr (Rezin) Park",
"Street": "744 N. Pulaski Rd.",
"City": "Chicago",
"county": "Cook County",
"state": "Illinois",
"state_code": "IL",
"postcode": 60624,
"lat": 41.8949029,
"lon": -87.7260667
},
{
"Type": "Node",
"Name": "Owens (Jesse) Park",
"Street": "8800 S. Clyde",
"City": "Chicago",
"county": "Cook County",
"state": "Illinois",
"state_code": "IL",
"postcode": "",
"lat": 42.017801,
"lon": -87.681659
},
{
"Type": "Node",
"Name": "Oz Park",
"Street": "2021 N. Burling St.",
"City": "Chicago",
"county": "Cook County",
"state": "Illinois",
"state_code": "IL",
"postcode": 60614,
"lat": 41.92089165,
"lon": -87.6456608942171
},
{
"Type": "Node",
"Name": "Packingtown Park",
"Street": "4856 S. Laflin St.",
"City": "Chicago",
"county": "Cook County",
"state": "Illinois",
"state_code": "IL",
"postcode": 60609,
"lat": 41.8051497,
"lon": -87.6628027235149
},
{
"Type": "Node",
"Name": "Palmer Park",
"Street": "201 E. 111th St.",
"City": "Chicago",
"county": "Cook County",
"state": "Illinois",
"state_code": "IL",
"postcode": 60628,
"lat": 41.69186225,
"lon": -87.6163993929941
},
{
"Type": "Node",
"Name": "Palmer Square Park",
"Street": "2200 N. Kedzie Ave.",
"City": "Chicago",
"county": "Cook County",
"state": "Illinois",
"state_code": "IL",
"postcode": "",
"lat": 41.921087,
"lon": -87.704649
},
{
"Type": "Node",
"Name": "Palmisano (Henry) Park",
"Street": "2700 S. Halsted St.",
"City": "Chicago",
"county": "Cook County",
"state": "Illinois",
"state_code": "IL",
"postcode": 60608,
"lat": 41.84243155,
"lon": -87.648561816684
},
{
"Type": "Node",
"Name": "Park No. 326",
"Street": "6430 S.Kenwood Ave.",
"City": "Chicago",
"county": "Cook County",
"state": "Illinois",
"state_code": "IL",
"postcode": 60637,
"lat": 41.77773555,
"lon": -87.5934598763302
},
{
"Type": "Node",
"Name": "Park No. 382",
"Street": "8116 S. Halsted St.",
"City": "Chicago",
"county": "Cook County",
"state": "Illinois",
"state_code": "IL",
"postcode": 60620,
"lat": 41.74659325,
"lon": -87.6444045
},
{
"Type": "Node",
"Name": "Park No. 399",
"Street": "1420 N. Artesian Ave.",
"City": "Chicago",
"county": "Cook County",
"state": "Illinois",
"state_code": "IL",
"postcode": 60622,
"lat": 41.9072896,
"lon": -87.68872355
},
{
"Type": "Node",
"Name": "Park No. 414",
"Street": "4302 W. Division St.",
"City": "Chicago",
"county": "Cook County",
"state": "Illinois",
"state_code": "IL",
"postcode": 60651,
"lat": 41.9028131,
"lon": -87.73411675
},
{
"Type": "Node",
"Name": "Park No. 419",
"Street": "8001 S. Wabash Ave.",
"City": "Chicago",
"county": "Cook County",
"state": "Illinois",
"state_code": "IL",
"postcode": 60619,
"lat": 41.7490258,
"lon": -87.6225242729045
},
{
"Type": "Node",
"Name": "Park No. 421",
"Street": "5300 S. Halsted St.",
"City": "Chicago",
"county": "Cook County",
"state": "Illinois",
"state_code": "IL",
"postcode": 60609,
"lat": 41.7973921,
"lon": -87.6456236986221
},
{
"Type": "Node",
"Name": "Park No. 422",
"Street": "3232 W. Congress Pkwy.",
"City": "Chicago",
"county": "Cook County",
"state": "Illinois",
"state_code": "IL",
"postcode": 60624,
"lat": 41.87484705,
"lon": -87.7075014994865
},
{
"Type": "Node",
"Name": "Park No. 432",
"Street": "3349 W. Rice St.",
"City": "Chicago",
"county": "Cook County",
"state": "Illinois",
"state_code": "IL",
"postcode": 60651,
"lat": 41.8961881,
"lon": -87.7107780063451
},
{
"Type": "Node",
"Name": "Park No. 437",
"Street": "5653 S. Loomis St.",
"City": "Chicago",
"county": "Cook County",
"state": "Illinois",
"state_code": "IL",
"postcode": 60636,
"lat": 41.79065165,
"lon": -87.6592934757111
},
{
"Type": "Node",
"Name": "Park No. 468",
"Street": "4556 W. 56th St.",
"City": "Chicago",
"county": "Cook County",
"state": "Illinois",
"state_code": "IL",
"postcode": 60629,
"lat": 41.79197315,
"lon": -87.7375083542235
},
{
"Type": "Node",
"Name": "Park No. 474",
"Street": "3231 S. Dearborn St.",
"City": "Chicago",
"county": "Cook County",
"state": "Illinois",
"state_code": "IL",
"postcode": 60616,
"lat": 41.83550935,
"lon": -87.6275115495556
},
{
"Type": "Node",
"Name": "Park No. 489",
"Street": "2420 W. Adams St.",
"City": "Chicago",
"county": "Cook County",
"state": "Illinois",
"state_code": "IL",
"postcode": 60612,
"lat": 41.8789611,
"lon": -87.6872051397319
},
{
"Type": "Node",
"Name": "Park No. 500",
"Street": "730 S. Springfield Ave.",
"City": "Chicago",
"county": "Cook County",
"state": "Illinois",
"state_code": "IL",
"postcode": 60624,
"lat": 41.8711999,
"lon": -87.7228372389006
},
{
"Type": "Node",
"Name": "Park No. 512",
"Street": "1800 N. Ashland",
"City": "Chicago",
"county": "Cook County",
"state": "Illinois",
"state_code": "IL",
"postcode": 60622,
"lat": 41.91483025,
"lon": -87.6682036800675
},
{
"Type": "Node",
"Name": "Park No. 514",
"Street": "1420 N. Monticello Ave.",
"City": "Chicago",
"county": "Cook County",
"state": "Illinois",
"state_code": "IL",
"postcode": 60651,
"lat": 41.9073059,
"lon": -87.7181670320118
},
{
"Type": "Node",
"Name": "Park No. 517",
"Street": "5914 N. Sheridan Rd.",
"City": "Chicago",
"county": "Cook County",
"state": "Illinois",
"state_code": "IL",
"postcode": 60660,
"lat": 41.98981525,
"lon": -87.65579635
},
{
"Type": "Node",
"Name": "Park No. 519",
"Street": "1944 S. St. Louis Ave.",
"City": "Chicago",
"county": "Cook County",
"state": "Illinois",
"state_code": "IL",
"postcode": 60623,
"lat": 41.85394715,
"lon": -87.7127326496223
},
{
"Type": "Node",
"Name": "Park No. 527",
"Street": "141 W. 62nd St.",
"City": "Chicago",
"county": "Cook County",
"state": "Illinois",
"state_code": "IL",
"postcode": 60621,
"lat": 41.7814693,
"lon": -87.6293407758872
},
{
"Type": "Node",
"Name": "Park No. 528",
"Street": "6336 S. Kilbourn Ave",
"City": "Chicago",
"county": "Cook County",
"state": "Illinois",
"state_code": "IL",
"postcode": 60629,
"lat": 41.777411,
"lon": -87.735965
},
{
"Type": "Node",
"Name": "Park No. 529",
"Street": "2155 W. Wabansia Ave.",
"City": "Chicago",
"county": "Cook County",
"state": "Illinois",
"state_code": "IL",
"postcode": 60647,
"lat": 41.912448,
"lon": -87.6819918293861
},
{
"Type": "Node",
"Name": "Park No. 534",
"Street": "1300 S. St. Louis",
"City": "Chicago",
"county": "Cook County",
"state": "Illinois",
"state_code": "IL",
"postcode": 60623,
"lat": 41.8637989,
"lon": -87.7137894438468
},
{
"Type": "Node",
"Name": "Park No. 535",
"Street": "800 W. Wisconsin",
"City": "Chicago",
"county": "Cook County",
"state": "Illinois",
"state_code": "IL",
"postcode": 60614,
"lat": 41.9160315,
"lon": -87.6487885666636
},
{
"Type": "Node",
"Name": "Park No. 536",
"Street": "1401 N. Noble Street",
"City": "Chicago",
"county": "Cook County",
"state": "Illinois",
"state_code": "IL",
"postcode": 60622,
"lat": 41.907413,
"lon": -87.6625126474008
},
{
"Type": "Node",
"Name": "Park No. 538",
"Street": "6426 N. Kedzie Ave.",
"City": "Chicago",
"county": "Cook County",
"state": "Illinois",
"state_code": "IL",
"postcode": "",
"lat": 41.88112,
"lon": -87.706125
},
{
"Type": "Node",
"Name": "Park No. 540",
"Street": "98 W. 24 th St.",
"City": "Chicago",
"county": "Cook County",
"state": "Illinois",
"state_code": "IL",
"postcode": 60616,
"lat": 41.8485703,
"lon": -87.6290077424072
},
{
"Type": "Node",
"Name": "Park No. 546",
"Street": "450 E. Benton Place",
"City": "Chicago",
"county": "Cook County",
"state": "Illinois",
"state_code": "IL",
"postcode": 60601,
"lat": 41.886064,
"lon": -87.617862
},
{
"Type": "Node",
"Name": "Park No. 548 - Major Taylor Bike Trail",
"Street": "12000 South Emerald Avenue",
"City": "Chicago",
"county": "Cook County",
"state": "Illinois",
"state_code": "IL",
"postcode": "",
"lat": 41.87897,
"lon": -87.66063
},
{
"Type": "Node",
"Name": "Park No. 551",
"Street": "353 N. DesPlaines St.",
"City": "Chicago",
"county": "Cook County",
"state": "Illinois",
"state_code": "IL",
"postcode": 60661,
"lat": 41.8882321,
"lon": -87.6431889
},
{
"Type": "Node",
"Name": "Park No. 556",
"Street": "2529 W.Logan Blvd.",
"City": "Chicago",
"county": "Cook County",
"state": "Illinois",
"state_code": "IL",
"postcode": 60647,
"lat": 41.9275751,
"lon": -87.6882592848732
},
{
"Type": "Node",
"Name": "Park No. 559",
"Street": "6151 N.Sheridan Road",
"City": "Chicago",
"county": "Cook County",
"state": "Illinois",
"state_code": "IL",
"postcode": 60660,
"lat": 41.9938259,
"lon": -87.6548811144032
},
{
"Type": "Node",
"Name": "Park No. 567",
"Street": "1801 N. Milwaukee Ave.",
"City": "Chicago",
"county": "Cook County",
"state": "Illinois",
"state_code": "IL",
"postcode": 60647,
"lat": 41.9142868,
"lon": -87.6830317859511
},
{
"Type": "Node",
"Name": "Park No. 569",
"Street": "1358 W. Monroe St.",
"City": "Chicago",
"county": "Cook County",
"state": "Illinois",
"state_code": "IL",
"postcode": 60607,
"lat": 41.8795842,
"lon": -87.6629989041133
},
{
"Type": "Node",
"Name": "Park No. 571",
"Street": "2754-2860 S. Eleanor St.",
"City": "Chicago",
"county": "Cook County",
"state": "Illinois",
"state_code": "IL",
"postcode": 60608,
"lat": 41.843631,
"lon": -87.6628991386635
},
{
"Type": "Node",
"Name": "Park No. 574",
"Street": "2540 W Jackson Blvd",
"City": "Chicago",
"county": "Cook County",
"state": "Illinois",
"state_code": "IL",
"postcode": 60612,
"lat": 41.87821235,
"lon": -87.6906305366002
},
{
"Type": "Node",
"Name": "Park No. 578",
"Street": "1919 W. Maypole Ave.",
"City": "Chicago",
"county": "Cook County",
"state": "Illinois",
"state_code": "IL",
"postcode": 60612,
"lat": 41.883659,
"lon": -87.6748795167406
},
{
"Type": "Node",
"Name": "Park No. 579 - Ridgeway Trailhead",
"Street": "1801 N. Ridgeway Ave.",
"City": "Chicago",
"county": "Cook County",
"state": "Illinois",
"state_code": "IL",
"postcode": 60647,
"lat": 41.91381345,
"lon": -87.7203426264496
},
{
"Type": "Node",
"Name": "Park No. 580",
"Street": "4139 N. Oak Park Ave.",
"City": "Chicago",
"county": "Cook County",
"state": "Illinois",
"state_code": "IL",
"postcode": 60634,
"lat": 41.9568776,
"lon": -87.795960965902
},
{
"Type": "Node",
"Name": "Park No. 581",
"Street": "11625 S. Oakley Ave",
"City": "Chicago",
"county": "Cook County",
"state": "Illinois",
"state_code": "IL",
"postcode": 60643,
"lat": 41.68067285,
"lon": -87.6780952792626
},
{
"Type": "Node",
"Name": "Park No. 583",
"Street": "10108 S. Exchange Ave.",
"City": "Chicago",
"county": "Cook County",
"state": "Illinois",
"state_code": "IL",
"postcode": 60617,
"lat": 41.7113049,
"lon": -87.5526742250994
},
{
"Type": "Node",
"Name": "Park No. 585",
"Street": "6049 S. Whipple St.",
"City": "Chicago",
"county": "Cook County",
"state": "Illinois",
"state_code": "IL",
"postcode": 60629,
"lat": 41.78301185,
"lon": -87.6993419243851
},
{
"Type": "Node",
"Name": "Park No. 593",
"Street": "4546 N Kedvale Ave",
"City": "Chicago",
"county": "Cook County",
"state": "Illinois",
"state_code": "IL",
"postcode": 60630,
"lat": 41.9638075,
"lon": -87.7318235845927
},
{
"Type": "Node",
"Name": "Park No. 598",
"Street": "1514 N. Larrabee St",
"City": "Chicago",
"county": "Cook County",
"state": "Illinois",
"state_code": "IL",
"postcode": 60610,
"lat": 41.90981475,
"lon": -87.6443906794236
},
{
"Type": "Node",
"Name": "Park West Park",
"Street": "745 W. Wrightwood Ave.",
"City": "Chicago",
"county": "Cook County",
"state": "Illinois",
"state_code": "IL",
"postcode": 60614,
"lat": 41.92884855,
"lon": -87.6480860493483
},
{
"Type": "Node",
"Name": "Parkview Playlot Park",
"Street": "3823 W. School St.",
"City": "Chicago",
"county": "Cook County",
"state": "Illinois",
"state_code": "IL",
"postcode": "",
"lat": 41.940962,
"lon": -87.723573
},
{
"Type": "Node",
"Name": "Parsons Park",
"Street": "4712 W. Belmont Ave.",
"City": "Chicago",
"county": "Cook County",
"state": "Illinois",
"state_code": "IL",
"postcode": 60657,
"lat": 41.9397964,
"lon": -87.6533276
},
{
"Type": "Node",
"Name": "Paschen Park",
"Street": "1932 W. Lunt Ave.",
"City": "Chicago",
"county": "Cook County",
"state": "Illinois",
"state_code": "IL",
"postcode": 60626,
"lat": 42.0092188,
"lon": -87.6796671595433
},
{
"Type": "Node",
"Name": "Pasteur Park",
"Street": "5825 S. Kostner Ave",
"City": "Chicago",
"county": "Cook County",
"state": "Illinois",
"state_code": "IL",
"postcode": 60629,
"lat": 41.7876606,
"lon": -87.7318424215473
},
{
"Type": "Node",
"Name": "Pendleton (Hadiya) Park",
"Street": "4345 S. Calumet Ave.",
"City": "Chicago",
"county": "Cook County",
"state": "Illinois",
"state_code": "IL",
"postcode": 60653,
"lat": 41.815311,
"lon": -87.618334
},
{
"Type": "Node",
"Name": "Periwinkle Park",
"Street": "30 W. 66th St.",
"City": "Chicago",
"county": "Cook County",
"state": "Illinois",
"state_code": "IL",
"postcode": 60621,
"lat": 41.77454,
"lon": -87.6279426
},
{
"Type": "Node",
"Name": "Peterson  (Pehr Samuel) Park",
"Street": "5801 N. Pulaski Rd.",
"City": "Chicago",
"county": "Cook County",
"state": "Illinois",
"state_code": "IL",
"postcode": 60659,
"lat": 41.98382,
"lon": -87.723766
},
{
"Type": "Node",
"Name": "Pietrowski (Sylvester) Park",
"Street": "9650 S. Avenue M.",
"City": "Chicago",
"county": "Cook County",
"state": "Illinois",
"state_code": "IL",
"postcode": 60617,
"lat": 41.719837,
"lon": -87.538056
},
{
"Type": "Node",
"Name": "Pine Park",
"Street": "9501 S. Oglesby Ave.",
"City": "Chicago",
"county": "Cook County",
"state": "Illinois",
"state_code": "IL",
"postcode": 60617,
"lat": 41.7515,
"lon": -87.567182
},
{
"Type": "Node",
"Name": "Piotrowski Park",
"Street": "4247 W. 31st St.",
"City": "Chicago",
"county": "Cook County",
"state": "Illinois",
"state_code": "IL",
"postcode": 60623,
"lat": 41.835826,
"lon": -87.7307590989116
},
{
"Type": "Node",
"Name": "Pleasant Point Park",
"Street": "6801 W. Imlay St.",
"City": "Chicago",
"county": "Cook County",
"state": "Illinois",
"state_code": "IL",
"postcode": 60631,
"lat": 41.99816125,
"lon": -87.797740506492
},
{
"Type": "Node",
"Name": "Poplar Park",
"Street": "4044 S. Prairie Ave.",
"City": "Chicago",
"county": "Cook County",
"state": "Illinois",
"state_code": "IL",
"postcode": 60653,
"lat": 41.82062955,
"lon": -87.6203832008147
},
{
"Type": "Node",
"Name": "Portage Park",
"Street": "4100 N. Long Ave.",
"City": "Chicago",
"county": "Cook County",
"state": "Illinois",
"state_code": "IL",
"postcode": 60641,
"lat": 41.95520085,
"lon": -87.7645929592604
},
{
"Type": "Node",
"Name": "Pottawattomie Park",
"Street": "7340 N. Rogers Ave.",
"City": "Chicago",
"county": "Cook County",
"state": "Illinois",
"state_code": "IL",
"postcode": 60626,
"lat": 42.01611705,
"lon": -87.6773192610704
},
{
"Type": "Node",
"Name": "Prinz (Tobey) Beach Park",
"Street": "1050 W. Pratt Ave.",
"City": "Chicago",
"county": "Cook County",
"state": "Illinois",
"state_code": "IL",
"postcode": "",
"lat": 42.00432,
"lon": -87.811593
},
{
"Type": "Node",
"Name": "Pritzker Park",
"Street": "310 S. State St.",
"City": "Chicago",
"county": "Cook County",
"state": "Illinois",
"state_code": "IL",
"postcode": 60604,
"lat": 41.877887,
"lon": -87.628045
},
{
"Type": "Node",
"Name": "Privet Park",
"Street": "1844 N. Sheffield Ave.",
"City": "Chicago",
"county": "Cook County",
"state": "Illinois",
"state_code": "IL",
"postcode": 60614,
"lat": 41.9150292,
"lon": -87.6532608
},
{
"Type": "Node",
"Name": "Promontory Point",
"Street": "5491 S. Jean-Baptiste Pointe DuSable Lake Shore Dr.",
"City": "Chicago",
"county": "Cook County",
"state": "Illinois",
"state_code": "IL",
"postcode": "",
"lat": 41.795894,
"lon": -87.5771540384571
},
{
"Type": "Node",
"Name": "Prospect Gardens Park",
"Street": "10940 S. Prospect Ave.",
"City": "Chicago",
"county": "Cook County",
"state": "Illinois",
"state_code": "IL",
"postcode": "",
"lat": 41.6940151,
"lon": -87.668479385019
},
{
"Type": "Node",
"Name": "Pulaski (Casimer) Park",
"Street": "1419 W. Blackhawk St.",
"City": "Chicago",
"county": "Cook County",
"state": "Illinois",
"state_code": "IL",
"postcode": 60642,
"lat": 41.906821,
"lon": -87.663309
},
{
"Type": "Node",
"Name": "Pullman (George) Park",
"Street": "11101 S. Cottage Grove Ave.",
"City": "Chicago",
"county": "Cook County",
"state": "Illinois",
"state_code": "IL",
"postcode": 60628,
"lat": 41.69227955,
"lon": -87.6095794613119
},
{
"Type": "Node",
"Name": "Quinn (Mary Berkemeier) Park",
"Street": "6239 N. McClellan Ave.",
"City": "Chicago",
"county": "Cook County",
"state": "Illinois",
"state_code": "IL",
"postcode": "",
"lat": 41.995389,
"lon": -87.770496
},
{
"Type": "Node",
"Name": "Railroad Junction Park",
"Street": "7334 S. Maryland Ave.",
"City": "Chicago",
"county": "Cook County",
"state": "Illinois",
"state_code": "IL",
"postcode": "",
"lat": 41.797551,
"lon": -87.605091
},
{
"Type": "Node",
"Name": "Rainbow Beach Park",
"Street": "3111 East 77th St.",
"City": "Chicago",
"county": "Cook County",
"state": "Illinois",
"state_code": "IL",
"postcode": 60649,
"lat": 41.7563256,
"lon": -87.5496009528416
},
{
"Type": "Node",
"Name": "Rainey (Edward) Park",
"Street": "4350 W. 79th St.",
"City": "Chicago",
"county": "Cook County",
"state": "Illinois",
"state_code": "IL",
"postcode": 60652,
"lat": 41.750325,
"lon": -87.731004
},
{
"Type": "Node",
"Name": "Ravenswood Manor Park",
"Street": "4604 N. Manor Ave.",
"City": "Chicago",
"county": "Cook County",
"state": "Illinois",
"state_code": "IL",
"postcode": "",
"lat": 41.9654642,
"lon": -87.7006788271585
},
{
"Type": "Node",
"Name": "Renaissance Park",
"Street": "1300 W. 79th St.",
"City": "Chicago",
"county": "Cook County",
"state": "Illinois",
"state_code": "IL",
"postcode": 60652,
"lat": 41.7507209,
"lon": -87.6561576
},
{
"Type": "Node",
"Name": "Revere (Paul) Park",
"Street": "2509 W. Irving Park Rd.",
"City": "Chicago",
"county": "Cook County",
"state": "Illinois",
"state_code": "IL",
"postcode": 60618,
"lat": 41.953642,
"lon": -87.69204
},
{
"Type": "Node",
"Name": "Reyes (Guadalupe) Park",
"Street": "821 W. 19th St.",
"City": "Chicago",
"county": "Cook County",
"state": "Illinois",
"state_code": "IL",
"postcode": 60608,
"lat": 41.8567149,
"lon": -87.64722
},
{
"Type": "Node",
"Name": "Ridge Park",
"Street": "1817 W. 96th Street",
"City": "Chicago",
"county": "Cook County",
"state": "Illinois",
"state_code": "IL",
"postcode": 60643,
"lat": 41.7162479,
"lon": -87.6675653615278
},
{
"Type": "Node",
"Name": "Ridge Wetlands Park",
"Street": "9512 S. Wood St.",
"City": "Chicago",
"county": "Cook County",
"state": "Illinois",
"state_code": "IL",
"postcode": "",
"lat": 41.851188,
"lon": -87.670902
},
{
"Type": "Node",
"Name": "Rils (Jacob) Park",
"Street": "6100 W. Fullerton Ave.",
"City": "Chicago",
"county": "Cook County",
"state": "Illinois",
"state_code": "IL",
"postcode": 60614,
"lat": 41.9252001,
"lon": -87.6528122
},
{
"Type": "Node",
"Name": "River Esplanade Park",
"Street": "401 E. River Dr.",
"City": "Chicago",
"county": "Cook County",
"state": "Illinois",
"state_code": "IL",
"postcode": 60611,
"lat": 41.8888661,
"lon": -87.6179009
},
{
"Type": "Node",
"Name": "River Park",
"Street": "5100 N. Francisco Ave.",
"City": "Chicago",
"county": "Cook County",
"state": "Illinois",
"state_code": "IL",
"postcode": 60625,
"lat": 41.97393345,
"lon": -87.7026904343513
},
{
"Type": "Node",
"Name": "Roberts (David) Square Park",
"Street": "5230 W. Argyle St.",
"City": "Chicago",
"county": "Cook County",
"state": "Illinois",
"state_code": "IL",
"postcode": "",
"lat": 41.9715592,
"lon": -87.7588988
},
{
"Type": "Node",
"Name": "Robichaux (Joseph) Park",
"Street": "8247 S. Eggleston Ave.",
"City": "Chicago",
"county": "Cook County",
"state": "Illinois",
"state_code": "IL",
"postcode": 60621,
"lat": 41.7871678,
"lon": -87.6364524
},
{
"Type": "Node",
"Name": "Robinson (Jackie) Park",
"Street": "10540 S. Morgan St.",
"City": "Chicago",
"county": "Cook County",
"state": "Illinois",
"state_code": "IL",
"postcode": 60643,
"lat": 41.702514,
"lon": -87.648112
},
{
"Type": "Node",
"Name": "Rogers Beach Park",
"Street": "7705 N. Eastlake Terrace",
"City": "Chicago",
"county": "Cook County",
"state": "Illinois",
"state_code": "IL",
"postcode": 60626,
"lat": 42.0213037,
"lon": -87.6646927983342
},
{
"Type": "Node",
"Name": "Rogers Park",
"Street": "7345 N. Washtenaw Ave.",
"City": "Chicago",
"county": "Cook County",
"state": "Illinois",
"state_code": "IL",
"postcode": 60645,
"lat": 42.01394515,
"lon": -87.6949338946501
},
{
"Type": "Node",
"Name": "Ronan (George) Park",
"Street": "3000 W. Argyle St.",
"City": "Chicago",
"county": "Cook County",
"state": "Illinois",
"state_code": "IL",
"postcode": 60625,
"lat": 41.972439,
"lon": -87.704531
},
{
"Type": "Node",
"Name": "Roosevelt (Theodore) Park",
"Street": "62 W. Roosevelt Rd.",
"City": "Chicago",
"county": "Cook County",
"state": "Illinois",
"state_code": "IL",
"postcode": 60605,
"lat": 41.868118,
"lon": -87.6298817842201
},
{
"Type": "Node",
"Name": "Rosedale Park",
"Street": "6312 W. Rosedale Ave.",
"City": "Chicago",
"county": "Cook County",
"state": "Illinois",
"state_code": "IL",
"postcode": 60646,
"lat": 41.98884105,
"lon": -87.7858234888572
},
{
"Type": "Node",
"Name": "Rosenblum Park",
"Street": "7547 S. Euclid Ave.",
"City": "Chicago",
"county": "Cook County",
"state": "Illinois",
"state_code": "IL",
"postcode": "",
"lat": 41.7577028,
"lon": -87.578530850789
},
{
"Type": "Node",
"Name": "Rowan Park",
"Street": "11546 S. Avenue L",
"City": "Chicago",
"county": "Cook County",
"state": "Illinois",
"state_code": "IL",
"postcode": 60617,
"lat": 41.6855721,
"lon": -87.5382524439802
},
{
"Type": "Node",
"Name": "Ruiz (Irma C.) Park",
"Street": "3801 W. 45th St.",
"City": "Chicago",
"county": "Cook County",
"state": "Illinois",
"state_code": "IL",
"postcode": 60632,
"lat": 41.811606,
"lon": -87.719409
},
{
"Type": "Node",
"Name": "Russel (Martin) Square Park",
"Street": "3045 E. 83rd St.",
"City": "Chicago",
"county": "Cook County",
"state": "Illinois",
"state_code": "IL",
"postcode": 60617,
"lat": 41.744441,
"lon": -87.549833
},
{
"Type": "Node",
"Name": "Rutherford Sayre Park",
"Street": "6871 W. Belden Ave.",
"City": "Chicago",
"county": "Cook County",
"state": "Illinois",
"state_code": "IL",
"postcode": 60647,
"lat": 41.9232613,
"lon": -87.6874529
},
{
"Type": "Node",
"Name": "Sacramento Park",
"Street": "3520 N. Sacramento Ave.",
"City": "Chicago",
"county": "Cook County",
"state": "Illinois",
"state_code": "IL",
"postcode": "",
"lat": 41.901064,
"lon": -87.701786
},
{
"Type": "Node",
"Name": "Sauganash Park",
"Street": "5861 N. Kostner Ave.",
"City": "Chicago",
"county": "Cook County",
"state": "Illinois",
"state_code": "IL",
"postcode": 60646,
"lat": 41.9880077,
"lon": -87.7370763170862
},
{
"Type": "Node",
"Name": "Shaefer (Edward) Park",
"Street": "2415 N. Marshfield Ave.",
"City": "Chicago",
"county": "",
"state": "",
"state_code": "",
"postcode": "",
"lat": 41.9257065,
"lon": -87.669037894191
},
{
"Type": "Node",
"Name": "Shafer (Clara D.) Park",
"Street": "8900 S. Green Bay Ave.",
"City": "Chicago",
"county": "",
"state": "",
"state_code": "",
"postcode": "",
"lat": 41.733997,
"lon": -87.542575
},
{
"Type": "Node",
"Name": "Schreiber Park",
"Street": "1552 W. Schreiber Ave.",
"City": "Chicago",
"county": "",
"state": "",
"state_code": "",
"postcode": "",
"lat": 41.99927125,
"lon": -87.6701050165981
},
{
"Type": "Node",
"Name": "Scottsdale Park",
"Street": "4637 W. 83rd St.",
"City": "Chicago",
"county": "",
"state": "",
"state_code": "",
"postcode": "",
"lat": 41.7417403,
"lon": -87.735737431026
},
{
"Type": "Node",
"Name": "Seneca Park",
"Street": "220 E. Chicago Ave.",
"City": "Chicago",
"county": "",
"state": "",
"state_code": "",
"postcode": "",
"lat": 41.89722165,
"lon": -87.6211234469288
},
{
"Type": "Node",
"Name": "Senior Citizens Memorial Park",
"Street": "2228 N. Oakley Ave",
"City": "Chicago",
"county": "",
"state": "",
"state_code": "",
"postcode": "",
"lat": 41.9231745,
"lon": -87.6855832105935
},
{
"Type": "Node",
"Name": "Senka (Edward \"Duke\") Park",
"Street": "5400 S. St. Louis Ave.",
"City": "Chicago",
"county": "",
"state": "",
"state_code": "",
"postcode": "",
"lat": 41.7946151,
"lon": -87.711148
},
{
"Type": "Node",
"Name": "Senn Park",
"Street": "5887 N. Ridge Ave.",
"City": "Chicago",
"county": "",
"state": "",
"state_code": "",
"postcode": "",
"lat": 41.989537,
"lon": -87.668409
},
{
"Type": "Node",
"Name": "Seward (William) Park",
"Street": "375 W. Elm St.",
"City": "Chicago",
"county": "",
"state": "",
"state_code": "",
"postcode": "",
"lat": 41.9026674,
"lon": -87.6381669795324
},
{
"Type": "Node",
"Name": "Shabbona Park",
"Street": "6935 W. Addison St.",
"City": "Chicago",
"county": "",
"state": "",
"state_code": "",
"postcode": "",
"lat": 41.94265075,
"lon": -87.8001648354537
},
{
"Type": "Node",
"Name": "Shedd (John G) Park",
"Street": "3660 W. 23rd St.",
"City": "Chicago",
"county": "",
"state": "",
"state_code": "",
"postcode": "",
"lat": 41.8501181,
"lon": -87.7167792681829
},
{
"Type": "Node",
"Name": "Sheil (Bernard) Community Center Park",
"Street": "3505 N. Southport Ave.",
"City": "Chicago",
"county": "",
"state": "",
"state_code": "",
"postcode": "",
"lat": 41.918026,
"lon": -87.663083
},
{
"Type": "Node",
"Name": "Sheridan Park",
"Street": "910 S. Aberdeen St.",
"City": "Chicago",
"county": "",
"state": "",
"state_code": "",
"postcode": "",
"lat": 41.8710536,
"lon": -87.6548066669314
},
{
"Type": "Node",
"Name": "Sherman (John) Park",
"Street": "1301 W. 52nd St.",
"City": "Chicago",
"county": "",
"state": "",
"state_code": "",
"postcode": "",
"lat": 41.7984192,
"lon": -87.6574203174053
},
{
"Type": "Node",
"Name": "Sherwood Park",
"Street": "5701 S. Shields Ave.",
"City": "Chicago",
"county": "",
"state": "",
"state_code": "",
"postcode": "",
"lat": 41.7898335,
"lon": -87.6343301294911
},
{
"Type": "Node",
"Name": "Simons (Almira) Park",
"Street": "1640 N. Drake Ave.",
"City": "Chicago",
"county": "",
"state": "",
"state_code": "",
"postcode": "",
"lat": 41.9112486,
"lon": -87.7149706
},
{
"Type": "Node",
"Name": "Sintic (Gregory) Park",
"Street": "2835 S. Wallace St.",
"City": "Chicago",
"county": "",
"state": "",
"state_code": "",
"postcode": "",
"lat": 41.84252115,
"lon": -87.64119135
},
{
"Type": "Node",
"Name": "Skinner (Mark) Park",
"Street": "1331 W. Adams St.",
"City": "Chicago",
"county": "",
"state": "",
"state_code": "",
"postcode": "",
"lat": 41.8793885,
"lon": -87.6607678475678
},
{
"Type": "Node",
"Name": "Smith (Joseph Higgins) Park",
"Street": "2526 W. Grand Ave.",
"City": "Chicago",
"county": "",
"state": "",
"state_code": "",
"postcode": "",
"lat": 41.8919423,
"lon": -87.6899522250766
},
{
"Type": "Node",
"Name": "Smith (Wendell) Park",
"Street": "9912 S. Princeton Ave.",
"City": "Chicago",
"county": "",
"state": "",
"state_code": "",
"postcode": "",
"lat": 41.713897,
"lon": -87.631215
},
{
"Type": "Node",
"Name": "Snapping Turtle Park",
"Street": "534 N. Albany Ave",
"City": "Chicago",
"county": "",
"state": "",
"state_code": "",
"postcode": "",
"lat": 41.89147295,
"lon": -87.7043196226334
},
{
"Type": "Node",
"Name": "Snowberry Park",
"Street": "1851 W. Huron St.",
"City": "Chicago",
"county": "",
"state": "",
"state_code": "",
"postcode": "",
"lat": 41.8941383,
"lon": -87.6741488
},
{
"Type": "Node",
"Name": "Soldier Field",
"Street": "1410 S. Museum Campus Dr.",
"City": "Chicago",
"county": "",
"state": "",
"state_code": "",
"postcode": "",
"lat": 41.8651818,
"lon": -87.614987
},
{
"Type": "Node",
"Name": "South Lakeview Park",
"Street": "1300 W. Wolfram St",
"City": "Chicago",
"county": "",
"state": "",
"state_code": "",
"postcode": "",
"lat": 41.933421,
"lon": -87.661394
},
{
"Type": "Node",
"Name": "South Shore Cultural Center",
"Street": "7059 S. South Shore Drive",
"City": "Chicago",
"county": "",
"state": "",
"state_code": "",
"postcode": "",
"lat": 41.76826195,
"lon": -87.5637897502456
},
{
"Type": "Node",
"Name": "Spikings Farm Park",
"Street": "4706 North Pulaski Road",
"City": "Chicago",
"county": "",
"state": "",
"state_code": "",
"postcode": "",
"lat": 41.8538497,
"lon": -87.724371
},
{
"Type": "Node",
"Name": "Spruce Park",
"Street": "5337 S. Blackstone Ave.",
"City": "Chicago",
"county": "",
"state": "",
"state_code": "",
"postcode": "",
"lat": 41.7988527,
"lon": -87.5900486989655
},
{
"Type": "Node",
"Name": "St. Louis Playground Park",
"Street": "339 N. St. Louis Ave.",
"City": "Chicago",
"county": "",
"state": "",
"state_code": "",
"postcode": "",
"lat": 41.8874984,
"lon": -87.71364
},
{
"Type": "Node",
"Name": "Stanton (Edwin) Park",
"Street": "618 W. Scott St.",
"City": "Chicago",
"county": "",
"state": "",
"state_code": "",
"postcode": "",
"lat": 41.905881,
"lon": -87.64438865
},
{
"Type": "Node",
"Name": "Starr (Ellen Gates) Park",
"Street": "2306 W. Maypole Ave.",
"City": "Chicago",
"county": "",
"state": "",
"state_code": "",
"postcode": "",
"lat": 41.8841564,
"lon": -87.6847609
},
{
"Type": "Node",
"Name": "Star & Stripes Park",
"Street": "5100 S. Nordica Ave.",
"City": "Chicago",
"county": "",
"state": "",
"state_code": "",
"postcode": "",
"lat": 41.79922055,
"lon": -87.7973082713783
},
{
"Type": "Node",
"Name": "Stateway Park",
"Street": "3658 S. State St.",
"City": "Chicago",
"county": "",
"state": "",
"state_code": "",
"postcode": "",
"lat": 41.82672505,
"lon": -87.6271482962946
},
{
"Type": "Node",
"Name": "Steelworkers Park",
"Street": "87th at S. Lake Shore Drive.",
"City": "Chicago",
"county": "",
"state": "",
"state_code": "",
"postcode": "",
"lat": 41.73693925,
"lon": -87.5300781104693
},
{
"Type": "Node",
"Name": "Stone Park",
"Street": "3150 West Peterson Avenue",
"City": "Chicago",
"county": "",
"state": "",
"state_code": "",
"postcode": "",
"lat": 41.995273,
"lon": -87.710853
},
{
"Type": "Node",
"Name": "Stout (Florence) Park",
"Street": "5446 S. Greenwood Ave.",
"City": "Chicago",
"county": "",
"state": "",
"state_code": "",
"postcode": "",
"lat": 41.7966191,
"lon": -87.5996751
},
{
"Type": "Node",
"Name": "Strohacker (Howard) Park",
"Street": "4347 W. 54th St.",
"City": "Chicago",
"county": "",
"state": "",
"state_code": "",
"postcode": "",
"lat": 41.7948198,
"lon": -87.7323814206171
},
{
"Type": "Node",
"Name": "Sumac Park",
"Street": "4201 S. Champlain Ave",
"City": "Chicago",
"county": "",
"state": "",
"state_code": "",
"postcode": "",
"lat": 41.818364,
"lon": -87.61009
},
{
"Type": "Node",
"Name": "Summerdale Park",
"Street": "7262 W. Summerdale Ave.",
"City": "Chicago",
"county": "",
"state": "",
"state_code": "",
"postcode": "",
"lat": 41.97774045,
"lon": -87.8090452769091
},
{
"Type": "Node",
"Name": "Sumner Park",
"Street": "4320 W. 5th Ave.",
"City": "Chicago",
"county": "",
"state": "",
"state_code": "",
"postcode": "",
"lat": 41.87144195,
"lon": -87.7324196103025
},
{
"Type": "Node",
"Name": "Sun Yat-Sen Park",
"Street": "251 W. 24th Pl.",
"City": "Chicago",
"county": "",
"state": "",
"state_code": "",
"postcode": "",
"lat": 41.8480374,
"lon": -87.633872284396
},
{
"Type": "Node",
"Name": "Sunken Gardens Park",
"Street": "4500 N. Virginia Ave.",
"City": "Chicago",
"county": "",
"state": "",
"state_code": "",
"postcode": "",
"lat": 41.9632692,
"lon": -87.6950783372043
},
{
"Type": "Node",
"Name": "Supera (Louis) Park",
"Street": "2522 N. Racine Ave.",
"City": "Chicago",
"county": "",
"state": "",
"state_code": "",
"postcode": "",
"lat": 41.928659,
"lon": -87.659296
},
{
"Type": "Node",
"Name": "Superior Park",
"Street": "2101 W. Superior St.",
"City": "Chicago",
"county": "",
"state": "",
"state_code": "",
"postcode": "",
"lat": 41.894951,
"lon": -87.679471
},
{
"Type": "Node",
"Name": "Sweet Clover Park",
"Street": "650 W. Leamington Ave.",
"City": "Chicago",
"county": "",
"state": "",
"state_code": "",
"postcode": "",
"lat": 41.936711,
"lon": -87.646312
},
{
"Type": "Node",
"Name": "Sycamore Park",
"Street": "5109 S. Greenwood Ave.",
"City": "Chicago",
"county": "",
"state": "",
"state_code": "",
"postcode": "",
"lat": 41.8019903,
"lon": -87.5998024
},
{
"Type": "Node",
"Name": "Tarkington Park",
"Street": "3344 West 71st St",
"City": "Chicago",
"county": "",
"state": "",
"state_code": "",
"postcode": "",
"lat": 41.7645508,
"lon": -87.6830811
},
{
"Type": "Node",
"Name": "Taylor (Robert Rochon) Park",
"Street": "39 W. 47th St.",
"City": "Chicago",
"county": "",
"state": "",
"state_code": "",
"postcode": "",
"lat": 41.808919,
"lon": -87.627861
},
{
"Type": "Node",
"Name": "Taylor-Lauridsen (John, Emil) Park",
"Street": "704 W. 42nd St.",
"City": "Chicago",
"county": "",
"state": "",
"state_code": "",
"postcode": "",
"lat": 41.8176018,
"lon": -87.6432538
},
{
"Type": "Node",
"Name": "The Grove Park",
"Street": "8421 S. Morgan St.",
"City": "Chicago",
"county": "",
"state": "",
"state_code": "",
"postcode": "",
"lat": 41.74068805,
"lon": -87.64826005
},
{
"Type": "Node",
"Name": "The Park at NTA",
"Street": "55 W. Cermak Rd.",
"City": "Chicago",
"county": "",
"state": "",
"state_code": "",
"postcode": "",
"lat": 41.8522976,
"lon": -87.6289654
},
{
"Type": "Node",
"Name": "Throop (Amos Gager) Park",
"Street": "1811 S. Throop St.",
"City": "Chicago",
"county": "",
"state": "",
"state_code": "",
"postcode": "",
"lat": 41.857391,
"lon": -87.65861607487
},
{
"Type": "Node",
"Name": "Thuis (Grace Zwiefka) Park",
"Street": "4759 N. Lavergne Ave.",
"City": "Chicago",
"county": "",
"state": "",
"state_code": "",
"postcode": "",
"lat": 41.96771365,
"lon": -87.7520291737572
},
{
"Type": "Node",
"Name": "Tilton (George) Park",
"Street": "230 N. Kolmar",
"City": "Chicago",
"county": "",
"state": "",
"state_code": "",
"postcode": "",
"lat": 41.884217,
"lon": -87.739553
},
{
"Type": "Node",
"Name": "Tom Memorial Park",
"Street": "1700 S. Wentworth Ave.",
"City": "Chicago",
"county": "",
"state": "",
"state_code": "",
"postcode": "",
"lat": 41.8589951,
"lon": -87.6325311565983
},
{
"Type": "Node",
"Name": "Touhy (Patrick) Park",
"Street": "7348 N. Paulina",
"City": "Chicago",
"county": "",
"state": "",
"state_code": "",
"postcode": "",
"lat": 42.015264,
"lon": -87.672987
},
{
"Type": "Node",
"Name": "Touhy-Herbert (John, Victor) Park",
"Street": "2106 W. Adams St.",
"City": "Chicago",
"county": "",
"state": "",
"state_code": "",
"postcode": "",
"lat": 41.87883515,
"lon": -87.6793914875586
},
{
"Type": "Node",
"Name": "Trebes (Robert) Park",
"Street": "2250 N. Clifton Ave.",
"City": "Chicago",
"county": "",
"state": "",
"state_code": "",
"postcode": "",
"lat": 41.92288645,
"lon": -87.6577475799014
},
{
"Type": "Node",
"Name": "Triangle Park",
"Street": "1750 W. Juneway Ter.",
"City": "Chicago",
"county": "",
"state": "",
"state_code": "",
"postcode": "",
"lat": 41.8171438,
"lon": -87.5992471062544
},
{
"Type": "Node",
"Name": "Trumbull (Lyman) Park",
"Street": "2400 E. 105th St.",
"City": "Chicago",
"county": "",
"state": "",
"state_code": "",
"postcode": "",
"lat": 41.703707,
"lon": -87.619801
},
{
"Type": "Node",
"Name": "Tuley Park",
"Street": "501 E. 90th Pl.",
"City": "Chicago",
"county": "",
"state": "",
"state_code": "",
"postcode": "",
"lat": 41.7301331,
"lon": -87.6111996806582
},
{
"Type": "Node",
"Name": "Union Park",
"Street": "1501 W. Randolph St.",
"City": "Chicago",
"county": "",
"state": "",
"state_code": "",
"postcode": "",
"lat": 41.88351865,
"lon": -87.6653912259497
},
{
"Type": "Node",
"Name": "Unity Park",
"Street": "2636 N. Kimball Ave.",
"City": "Chicago",
"county": "",
"state": "",
"state_code": "",
"postcode": "",
"lat": 41.92971675,
"lon": -87.7125879440339
},
{
"Type": "Node",
"Name": "Valley Forge Park",
"Street": "7001 W. 59th St.",
"City": "Chicago",
"county": "",
"state": "",
"state_code": "",
"postcode": "",
"lat": 41.7872669,
"lon": -87.6257432
},
{
"Type": "Node",
"Name": "Veteran's Memorial Park",
"Street": "2820 E. 98th St.",
"City": "Chicago",
"county": "",
"state": "",
"state_code": "",
"postcode": "",
"lat": 41.71818705,
"lon": -87.5558480311287
},
{
"Type": "Node",
"Name": "Violet Park",
"Street": "4120 W. Taylor St.",
"City": "Chicago",
"county": "",
"state": "",
"state_code": "",
"postcode": "",
"lat": 41.8693032,
"lon": -87.7289091493921
},
{
"Type": "Node",
"Name": "Vittum Park",
"Street": "5010 W. 50th St.",
"City": "Chicago",
"county": "",
"state": "",
"state_code": "",
"postcode": "",
"lat": 41.8033588,
"lon": -87.7485432988394
},
{
"Type": "Node",
"Name": "Vogle (Henry Jr.) Park",
"Street": "2100 W. Lawrence Ave.",
"City": "Chicago",
"county": "",
"state": "",
"state_code": "",
"postcode": "",
"lat": 41.9690007,
"lon": -87.681875486606
},
{
"Type": "Node",
"Name": "Wagner (Clarence) Park",
"Street": "948 W. 51st St.",
"City": "Chicago",
"county": "",
"state": "",
"state_code": "",
"postcode": "",
"lat": 41.8015309,
"lon": -87.6496392
},
{
"Type": "Node",
"Name": "Wallace Park",
"Street": "607 W. 92nd St.",
"City": "Chicago",
"county": "",
"state": "",
"state_code": "",
"postcode": "",
"lat": 41.7265414,
"lon": -87.6388423493764
},
{
"Type": "Node",
"Name": "Walsh (John) Park",
"Street": "1722 N. Ashland Ave.",
"City": "Chicago",
"county": "",
"state": "",
"state_code": "",
"postcode": "",
"lat": 41.91371365,
"lon": -87.6684337987204
},
{
"Type": "Node",
"Name": "Wang (Chi Che) Park",
"Street": "1719 W. Wolfram St.",
"City": "Chicago",
"county": "",
"state": "",
"state_code": "",
"postcode": "",
"lat": 41.933254,
"lon": -87.672896
},
{
"Type": "Node",
"Name": "Ward (A. Montgomery) Park",
"Street": "630 N. Kingsbury St.",
"City": "Chicago",
"county": "",
"state": "",
"state_code": "",
"postcode": "",
"lat": 41.8933345,
"lon": -87.6413478
},
{
"Type": "Node",
"Name": "Warner Garden Park",
"Street": "1446 W. Warner Ave.",
"City": "Chicago",
"county": "",
"state": "",
"state_code": "",
"postcode": "",
"lat": 41.9573312,
"lon": -87.66620895
},
{
"Type": "Node",
"Name": "Warren (Laurence) Park",
"Street": "6601 N. Western Ave.",
"City": "Chicago",
"county": "",
"state": "",
"state_code": "",
"postcode": "",
"lat": 42.00287535,
"lon": -87.6859883038252
},
{
"Type": "Node",
"Name": "Washington (Dinah) Park",
"Street": "8213 S. Euclid Ave.",
"City": "Chicago",
"county": "",
"state": "",
"state_code": "",
"postcode": "",
"lat": 41.745452,
"lon": -87.576689
},
{
"Type": "Node",
"Name": "Washington (George) Park",
"Street": "5531 S. King Dr.",
"City": "Chicago",
"county": "",
"state": "",
"state_code": "",
"postcode": "",
"lat": 41.7902606,
"lon": -87.6110117633623
},
{
"Type": "Node",
"Name": "Washington (Harold) Memorial Park",
"Street": "7710 N. Paulina St",
"City": "Chicago",
"county": "",
"state": "",
"state_code": "",
"postcode": "",
"lat": 42.021494,
"lon": -87.673404096219
},
{
"Type": "Node",
"Name": "Washington Park Refectory",
"Street": "5531 S. Russel Dr.",
"City": "Chicago",
"county": "",
"state": "",
"state_code": "",
"postcode": "",
"lat": 41.7930095,
"lon": -87.6141801831794
},
{
"Type": "Node",
"Name": "Washington Square Park",
"Street": "901 N. Clark St.",
"City": "Chicago",
"county": "",
"state": "",
"state_code": "",
"postcode": "",
"lat": 41.89926495,
"lon": -87.6305847246124
},
{
"Type": "Node",
"Name": "Washtenaw Park",
"Street": "2521 S. Washtenaw Ave.",
"City": "Chicago",
"county": "",
"state": "",
"state_code": "",
"postcode": "",
"lat": 41.84585545,
"lon": -87.6926401568384
},
{
"Type": "Node",
"Name": "Webster (Daniel) Park",
"Street": "1357 S. Indiana Ave.",
"City": "Chicago",
"county": "",
"state": "",
"state_code": "",
"postcode": "",
"lat": 41.864403,
"lon": -87.622268
},
{
"Type": "Node",
"Name": "Weisman (Albert) Park",
"Street": "901 W. Oakdale Ave.",
"City": "Chicago",
"county": "",
"state": "",
"state_code": "",
"postcode": "",
"lat": 41.9351493,
"lon": -87.65183985
},
{
"Type": "Node",
"Name": "Welles (Gideon) Park",
"Street": "2333 W. Sunnyside Ave.",
"City": "Chicago",
"county": "",
"state": "",
"state_code": "",
"postcode": "",
"lat": 41.96281,
"lon": -87.686404
},
{
"Type": "Node",
"Name": "Wendt (Kenneth) Park",
"Street": "667 W. Roscoe St.",
"City": "Chicago",
"county": "",
"state": "",
"state_code": "",
"postcode": "",
"lat": 41.943391,
"lon": -87.647158
},
{
"Type": "Node",
"Name": "Wentworth Gardens Park",
"Street": "3770 S. Wentworth Ave.",
"City": "Chicago",
"county": "",
"state": "",
"state_code": "",
"postcode": "",
"lat": 41.82549595,
"lon": -87.6321326910225
},
{
"Type": "Node",
"Name": "Wentworth Park",
"Street": "5625 S. Mobile Ave.",
"City": "Chicago",
"county": "",
"state": "",
"state_code": "",
"postcode": "",
"lat": 41.799593,
"lon": -87.779243
},
{
"Type": "Node",
"Name": "Wesolek (Marlene) Park",
"Street": "13401-11 S. Avenue M.",
"City": "Chicago",
"county": "",
"state": "",
"state_code": "",
"postcode": "",
"lat": 41.705578,
"lon": -87.53769
},
{
"Type": "Node",
"Name": "West Chatham Park",
"Street": "8223 S. Princeton Ave",
"City": "Chicago",
"county": "",
"state": "",
"state_code": "",
"postcode": "",
"lat": 41.74508545,
"lon": -87.6316429577427
},
{
"Type": "Node",
"Name": "West Lawn Park",
"Street": "4233 W. 65th St.",
"City": "Chicago",
"county": "",
"state": "",
"state_code": "",
"postcode": "",
"lat": 41.7764393,
"lon": -87.6270541
},
{
"Type": "Node",
"Name": "West Pullman Park",
"Street": "401 W. 123rd St.",
"City": "Chicago",
"county": "",
"state": "",
"state_code": "",
"postcode": "",
"lat": 41.66976405,
"lon": -87.6317019198058
},
{
"Type": "Node",
"Name": "West Ridge Nature Park",
"Street": "5801 N. Western Ave.",
"City": "Chicago",
"county": "",
"state": "",
"state_code": "",
"postcode": "",
"lat": 41.987454,
"lon": -87.688036
},
{
"Type": "Node",
"Name": "Western Park",
"Street": "907 N. Western Ave.",
"City": "Chicago",
"county": "",
"state": "",
"state_code": "",
"postcode": "",
"lat": 41.8977302,
"lon": -87.6865478928043
},
{
"Type": "Node",
"Name": "White (Edward H.) Park",
"Street": "1120 W. 122nd St.",
"City": "Chicago",
"county": "",
"state": "",
"state_code": "",
"postcode": "",
"lat": 41.672704,
"lon": -87.650017
},
{
"Type": "Node",
"Name": "White (Jesse) Park",
"Street": "410 W. Chicago Ave.",
"City": "Chicago",
"county": "",
"state": "",
"state_code": "",
"postcode": "",
"lat": 41.8969425,
"lon": -87.6392829702953
},
{
"Type": "Node",
"Name": "White (Willye B.) Park",
"Street": "1610 W. Howard",
"City": "Chicago",
"county": "",
"state": "",
"state_code": "",
"postcode": "",
"lat": 41.87897,
"lon": -87.66063
},
{
"Type": "Node",
"Name": "Wicker (Charles, Joel) Park",
"Street": "1425 N. Damen Ave.",
"City": "Chicago",
"county": "",
"state": "",
"state_code": "",
"postcode": "",
"lat": 41.907988,
"lon": -87.676738
},
{
"Type": "Node",
"Name": "Wieboldt (William) Park",
"Street": "1747 W. Nelson St.",
"City": "Chicago",
"county": "",
"state": "",
"state_code": "",
"postcode": "",
"lat": 41.9366426,
"lon": -87.6729267
},
{
"Type": "Node",
"Name": "Wildwood Park",
"Street": "6950 N. Hiawatha Ave.",
"City": "Chicago",
"county": "",
"state": "",
"state_code": "",
"postcode": "",
"lat": 41.990285,
"lon": -87.742698
},
{
"Type": "Node",
"Name": "Williams (Daniel Hale) Park",
"Street": "2820 S. State St.",
"City": "Chicago",
"county": "",
"state": "",
"state_code": "",
"postcode": "",
"lat": 41.842912,
"lon": -87.628599
},
{
"Type": "Node",
"Name": "Williams-Davis (Hattie Kay, Izora) Park",
"Street": "4101 S. Lake  Park Ave.",
"City": "Chicago",
"county": "",
"state": "",
"state_code": "",
"postcode": "",
"lat": 41.820231,
"lon": -87.599699
},
{
"Type": "Node",
"Name": "Wilson (Frank J.) Park",
"Street": "4630 N. Milwaukee Ave.",
"City": "Chicago",
"county": "",
"state": "",
"state_code": "",
"postcode": "",
"lat": 41.964421,
"lon": -87.758541
},
{
"Type": "Node",
"Name": "Wilson (John P.) Park",
"Street": "1122 W. 34th Pl.",
"City": "Chicago",
"county": "",
"state": "",
"state_code": "",
"postcode": "",
"lat": 41.8317196,
"lon": -87.6545103964324
},
{
"Type": "Node",
"Name": "Wilson (John ) Community Center Park",
"Street": "3225 S. Racine Ave.",
"City": "Chicago",
"county": "",
"state": "",
"state_code": "",
"postcode": "",
"lat": 41.83535535,
"lon": -87.6555996001091
},
{
"Type": "Node",
"Name": "Winnemac Park",
"Street": "5100 N. Leavitt St",
"City": "Chicago",
"county": "",
"state": "",
"state_code": "",
"postcode": "",
"lat": 41.88846,
"lon": -87.681699
},
{
"Type": "Node",
"Name": "Wolcott (Alexander) Park",
"Street": "6551 S. Wolcott Ave.",
"City": "Chicago",
"county": "",
"state": "",
"state_code": "",
"postcode": "",
"lat": 41.774205,
"lon": -87.671021
},
{
"Type": "Node",
"Name": "Wolfe (Richard) Park",
"Street": "3325 E. 108th St.",
"City": "Chicago",
"county": "",
"state": "",
"state_code": "",
"postcode": "",
"lat": 41.698967,
"lon": -87.543169
},
{
"Type": "Node",
"Name": "Woodhull (Ross) Park",
"Street": "7340 S. East End Ave.",
"City": "Chicago",
"county": "",
"state": "",
"state_code": "",
"postcode": "",
"lat": 41.760954,
"lon": -87.584348
},
{
"Type": "Node",
"Name": "Wrightwood Park",
"Street": "2534 N. Greenview Ave.",
"City": "Chicago",
"county": "",
"state": "",
"state_code": "",
"postcode": "",
"lat": 41.92801135,
"lon": -87.6667777581438
},
{
"Type": "Node",
"Name": "Zatterberg Park",
"Street": "4246 N. Hermitage Ave",
"City": "Chicago",
"county": "",
"state": "",
"state_code": "",
"postcode": "",
"lat": 41.95928425,
"lon": -87.6727901729315
}
    ]
}